state_id,state_name,county,county_fips,lat,lng,population
AL,Alabama,Autauga,1001,32.5349,-86.6427,59285
AL,Alabama,Baldwin,1003,30.7277,-87.7226,239945
AL,Alabama,Barbour,1005,31.8696,-85.3932,24757
AL,Alabama,Bibb,1007,32.9986,-87.1265,22152
AL,Alabama,Blount,1009,33.9809,-86.5674,59292
AL,Alabama,Bullock,1011,32.1005,-85.7157,10157
AL,Alabama,Butler,1013,31.7524,-86.6803,18807
AL,Alabama,Calhoun,1015,33.7714,-85.826,116141
AL,Alabama,Chambers,1017,32.9143,-85.392,34450
AL,Alabama,Cherokee,1019,34.1759,-85.6038,25224
AL,Alabama,Chilton,1021,32.8479,-86.7188,45500
AL,Alabama,Choctaw,1023,32.0198,-88.2632,12525
AL,Alabama,Clarke,1025,31.6767,-87.8308,22802
AL,Alabama,Clay,1027,33.269,-85.8605,14188
AL,Alabama,Cleburne,1029,33.6745,-85.5188,15254
AL,Alabama,Coffee,1031,31.4027,-85.9882,54231
AL,Alabama,Colbert,1033,34.7005,-87.8049,57648
AL,Alabama,Conecuh,1035,31.4293,-86.9937,11411
AL,Alabama,Coosa,1037,32.9362,-86.2477,10323
AL,Alabama,Covington,1039,31.2485,-86.4513,37647
AL,Alabama,Crenshaw,1041,31.7315,-86.3136,13144
AL,Alabama,Cullman,1043,34.1319,-86.8676,89463
AL,Alabama,Dale,1045,31.4318,-85.611,49516
AL,Alabama,Dallas,1047,32.326,-87.1065,37536
AL,Alabama,DeKalb,1049,34.4598,-85.8041,71946
AL,Alabama,Elmore,1051,32.5966,-86.1492,88669
AL,Alabama,Escambia,1053,31.1262,-87.1615,36695
AL,Alabama,Etowah,1055,34.0453,-86.0348,103208
AL,Alabama,Fayette,1057,33.7212,-87.7388,16173
AL,Alabama,Franklin,1059,34.4417,-87.8437,31978
AL,Alabama,Geneva,1061,31.0951,-85.8391,26726
AL,Alabama,Greene,1063,32.8531,-87.9522,7589
AL,Alabama,Hale,1065,32.7627,-87.6291,14749
AL,Alabama,Henry,1067,31.5147,-85.2414,17450
AL,Alabama,Houston,1069,31.1532,-85.3025,107628
AL,Alabama,Jackson,1071,34.7795,-85.9994,52839
AL,Alabama,Jefferson,1073,33.5543,-86.8964,669744
AL,Alabama,Lamar,1075,33.7791,-88.097,13809
AL,Alabama,Lauderdale,1077,34.9014,-87.654,95037
AL,Alabama,Lawrence,1079,34.5217,-87.311,33182
AL,Alabama,Lee,1081,32.6011,-85.3555,177663
AL,Alabama,Limestone,1083,34.8101,-86.9814,107577
AL,Alabama,Lowndes,1085,32.1547,-86.6501,10008
AL,Alabama,Macon,1087,32.3859,-85.6927,18951
AL,Alabama,Madison,1089,34.7631,-86.5502,397135
AL,Alabama,Marengo,1091,32.2477,-87.7895,19027
AL,Alabama,Marion,1093,34.1366,-87.8871,29190
AL,Alabama,Marshall,1095,34.367,-86.3066,98712
AL,Alabama,Mobile,1097,30.7877,-88.2058,413162
AL,Alabama,Monroe,1099,31.5709,-87.3654,19580
AL,Alabama,Montgomery,1101,32.2203,-86.2076,227197
AL,Alabama,Morgan,1103,34.4535,-86.8529,123742
AL,Alabama,Perry,1105,32.6385,-87.2944,8231
AL,Alabama,Pickens,1107,33.2808,-88.0887,18843
AL,Alabama,Pike,1109,31.8027,-85.9409,32953
AL,Alabama,Randolph,1111,33.2938,-85.4591,22310
AL,Alabama,Russell,1113,32.2884,-85.1849,58858
AL,Alabama,St. Clair,1115,33.7157,-86.3146,92903
AL,Alabama,Shelby,1117,33.2643,-86.6607,226955
AL,Alabama,Sumter,1119,32.5911,-88.1988,12020
AL,Alabama,Talladega,1121,33.3801,-86.1659,81170
AL,Alabama,Tallapoosa,1123,32.8624,-85.7975,41070
AL,Alabama,Tuscaloosa,1125,33.2896,-87.5251,234036
AL,Alabama,Walker,1127,33.8033,-87.2973,64886
AL,Alabama,Washington,1129,31.4076,-88.2079,15270
AL,Alabama,Wilcox,1131,31.9893,-87.3082,10347
AL,Alabama,Winston,1133,34.1492,-87.3737,23637
AK,Alaska,Aleutians East,2013,55.3669,-161.9805,3423
AK,Alaska,Aleutians West,2016,52.7985,-106.5633,5178
AK,Alaska,Anchorage,2020,61.1498,-149.1082,289069
AK,Alaska,Bethel,2050,60.9132,-159.8186,18487
AK,Alaska,Bristol Bay,2060,58.7439,-156.7,878
AK,Alaska,Chugach,2063,60.7234,-145.7714,6964
AK,Alaska,Copper River,2066,61.8834,-143.9681,2626
AK,Alaska,Denali,2068,63.6714,-150.0118,2029
AK,Alaska,Dillingham,2070,59.8003,-158.2346,4780
AK,Alaska,Fairbanks North Star,2090,64.8078,-146.5654,95555
AK,Alaska,Haines,2100,59.1199,-135.5002,2077
AK,Alaska,Hoonah-Angoon,2105,58.2872,-135.6402,2313
AK,Alaska,Juneau,2110,58.4546,-134.1733,31969
AK,Alaska,Kenai Peninsula,2122,60.2654,-151.5651,59843
AK,Alaska,Ketchikan Gateway,2130,55.5852,-130.9282,13870
AK,Alaska,Kodiak Island,2150,57.6791,-153.7992,12878
AK,Alaska,Kusilvak,2158,62.1547,-163.3812,8277
AK,Alaska,Lake and Peninsula,2164,58.6548,-156.1891,1007
AK,Alaska,Matanuska-Susitna,2170,62.316,-149.5729,110677
AK,Alaska,Nome,2180,64.9111,-164.0274,9925
AK,Alaska,North Slope,2185,69.3119,-153.4813,10891
AK,Alaska,Northwest Arctic,2188,67.0598,-159.7062,7611
AK,Alaska,Petersburg,2195,57.1204,-132.934,3394
AK,Alaska,Prince of Wales-Hyder,2198,55.8011,-133.0167,5730
AK,Alaska,Sitka,2220,57.2424,-135.3145,8393
AK,Alaska,Skagway,2230,59.563,-135.3363,1308
AK,Alaska,Southeast Fairbanks,2240,63.8762,-143.213,6936
AK,Alaska,Wrangell,2275,56.3323,-132.0221,2106
AK,Alaska,Yakutat,2282,59.8889,-140.3577,506
AK,Alaska,Yukon-Koyukuk,2290,65.5087,-151.3896,5271
AZ,Arizona,Apache,4001,35.3955,-109.4888,65680
AZ,Arizona,Cochise,4003,31.8796,-109.7512,125458
AZ,Arizona,Coconino,4005,35.8387,-111.7705,144643
AZ,Arizona,Gila,4007,33.7997,-110.8116,53610
AZ,Arizona,Graham,4009,32.9326,-109.8875,38860
AZ,Arizona,Greenlee,4011,33.2152,-109.2402,9452
AZ,Arizona,La Paz,4012,33.7294,-113.9815,16605
AZ,Arizona,Maricopa,4013,33.349,-112.4915,4491987
AZ,Arizona,Mohave,4015,35.7041,-113.7579,217420
AZ,Arizona,Navajo,4017,35.3996,-110.3214,107744
AZ,Arizona,Pima,4019,32.0974,-111.7899,1049947
AZ,Arizona,Pinal,4021,32.9044,-111.3448,449219
AZ,Arizona,Santa Cruz,4023,31.526,-110.8465,48209
AZ,Arizona,Yavapai,4025,34.5998,-112.5537,241656
AZ,Arizona,Yuma,4027,32.7695,-113.9056,207685
AR,Arkansas,Arkansas,5001,34.2892,-91.3742,16773
AR,Arkansas,Ashley,5003,33.1912,-91.7685,18722
AR,Arkansas,Baxter,5005,36.2872,-92.3369,42150
AR,Arkansas,Benton,5007,36.3387,-94.2561,294541
AR,Arkansas,Boone,5009,36.3086,-93.0915,37896
AR,Arkansas,Bradley,5011,33.4664,-92.1624,10354
AR,Arkansas,Calhoun,5013,33.5581,-92.503,4717
AR,Arkansas,Carroll,5015,36.341,-93.5382,28526
AR,Arkansas,Chicot,5017,33.267,-91.2937,9997
AR,Arkansas,Clark,5019,34.051,-93.1764,21378
AR,Arkansas,Clay,5021,36.3683,-90.4173,14399
AR,Arkansas,Cleburne,5023,35.5382,-92.0267,25048
AR,Arkansas,Cleveland,5025,33.8984,-92.1852,7491
AR,Arkansas,Columbia,5027,33.2143,-93.2273,22527
AR,Arkansas,Conway,5029,35.2624,-92.7014,20872
AR,Arkansas,Craighead,5031,35.8308,-90.6328,112097
AR,Arkansas,Crawford,5033,35.5881,-94.2428,60792
AR,Arkansas,Crittenden,5035,35.2057,-90.3078,47609
AR,Arkansas,Cross,5037,35.2957,-90.7711,16681
AR,Arkansas,Dallas,5039,33.9699,-92.6544,6351
AR,Arkansas,Desha,5041,33.8309,-91.2551,11041
AR,Arkansas,Drew,5043,33.5894,-91.72,17143
AR,Arkansas,Faulkner,5045,35.147,-92.332,126001
AR,Arkansas,Franklin,5047,35.5124,-93.8906,17220
AR,Arkansas,Fulton,5049,36.3817,-91.8182,12239
AR,Arkansas,Garland,5051,34.5767,-93.1504,100062
AR,Arkansas,Grant,5053,34.29,-92.4237,18111
AR,Arkansas,Greene,5055,36.1176,-90.5591,46182
AR,Arkansas,Hempstead,5057,33.7354,-93.6684,19778
AR,Arkansas,Hot Spring,5059,34.3177,-92.9461,33142
AR,Arkansas,Howard,5061,34.0889,-93.9936,12701
AR,Arkansas,Independence,5063,35.7416,-91.5697,38120
AR,Arkansas,Izard,5065,36.0949,-91.9134,13866
AR,Arkansas,Jackson,5067,35.5992,-91.2145,16775
AR,Arkansas,Jefferson,5069,34.2683,-91.9304,65780
AR,Arkansas,Johnson,5071,35.5697,-93.4602,25932
AR,Arkansas,Lafayette,5073,33.2416,-93.607,6211
AR,Arkansas,Lawrence,5075,36.0412,-91.107,16265
AR,Arkansas,Lee,5077,34.7805,-90.7808,8511
AR,Arkansas,Lincoln,5079,33.957,-91.7344,12966
AR,Arkansas,Little River,5081,33.7009,-94.2352,11959
AR,Arkansas,Logan,5083,35.2149,-93.7166,21240
AR,Arkansas,Lonoke,5085,34.7543,-91.8888,74747
AR,Arkansas,Madison,5087,36.011,-93.7246,17032
AR,Arkansas,Marion,5089,36.2684,-92.6842,17076
AR,Arkansas,Miller,5091,33.3124,-93.8921,42588
AR,Arkansas,Mississippi,5093,35.7624,-90.0522,39749
AR,Arkansas,Monroe,5095,34.6778,-91.2039,6681
AR,Arkansas,Montgomery,5097,34.5389,-93.6596,8571
AR,Arkansas,Nevada,5099,33.664,-93.3072,8228
AR,Arkansas,Newton,5101,35.92,-93.2179,7175
AR,Arkansas,Ouachita,5103,33.5934,-92.8819,22317
AR,Arkansas,Perry,5105,34.9475,-92.9313,10073
AR,Arkansas,Phillips,5107,34.4274,-90.8489,15910
AR,Arkansas,Pike,5109,34.1635,-93.6564,10182
AR,Arkansas,Poinsett,5111,35.574,-90.663,22740
AR,Arkansas,Polk,5113,34.4858,-94.2282,19348
AR,Arkansas,Pope,5115,35.4479,-93.0345,63830
AR,Arkansas,Prairie,5117,34.8297,-91.5528,8162
AR,Arkansas,Pulaski,5119,34.77,-92.312,398949
AR,Arkansas,Randolph,5121,36.3415,-91.0276,18733
AR,Arkansas,St. Francis,5123,35.022,-90.7478,22740
AR,Arkansas,Saline,5125,34.6466,-92.6766,125724
AR,Arkansas,Scott,5127,34.8607,-94.0633,9839
AR,Arkansas,Searcy,5129,35.911,-92.6995,7861
AR,Arkansas,Sebastian,5131,35.1989,-94.2743,128448
AR,Arkansas,Sevier,5133,33.9972,-94.2412,15797
AR,Arkansas,Sharp,5135,36.1612,-91.4798,17597
AR,Arkansas,Stone,5137,35.8599,-92.1568,12474
AR,Arkansas,Union,5139,33.1713,-92.5972,38368
AR,Arkansas,Van Buren,5141,35.5806,-92.5158,15936
AR,Arkansas,Washington,5143,35.9791,-94.2156,251863
AR,Arkansas,White,5145,35.2563,-91.7456,77395
AR,Arkansas,Woodruff,5147,35.1863,-91.2431,6157
AR,Arkansas,Yell,5149,35.0026,-93.4108,20195
CA,California,Alameda,6001,37.6469,-121.8887,1651949
CA,California,Alpine,6003,38.5972,-119.8207,1695
CA,California,Amador,6005,38.4464,-120.6511,41029
CA,California,Butte,6007,39.6669,-121.6007,209470
CA,California,Calaveras,6009,38.2046,-120.5541,45995
CA,California,Colusa,6011,39.1775,-122.237,21895
CA,California,Contra Costa,6013,37.9192,-121.9275,1161458
CA,California,Del Norte,6015,41.7431,-123.8972,27293
CA,California,El Dorado,6017,38.7787,-120.5247,192299
CA,California,Fresno,6019,36.7582,-119.6493,1012152
CA,California,Glenn,6021,39.5981,-122.3919,28623
CA,California,Humboldt,6023,40.6993,-123.8756,135418
CA,California,Imperial,6025,33.0395,-115.3653,179319
CA,California,Inyo,6027,36.5111,-117.4107,18803
CA,California,Kern,6029,35.3426,-118.7301,910433
CA,California,Kings,6031,36.0752,-119.8155,152830
CA,California,Lake,6033,39.1,-122.7534,68139
CA,California,Lassen,6035,40.6736,-120.5943,31177
CA,California,Los Angeles,6037,34.3219,-118.2247,9848406
CA,California,Madera,6039,37.218,-119.7627,158790
CA,California,Marin,6041,38.0735,-122.7236,258765
CA,California,Mariposa,6043,37.5815,-119.9054,17060
CA,California,Mendocino,6045,39.4402,-123.3915,90709
CA,California,Merced,6047,37.1919,-120.7177,285597
CA,California,Modoc,6049,41.5898,-120.725,8646
CA,California,Mono,6051,37.9391,-118.8868,13169
CA,California,Monterey,6053,36.2171,-121.2388,435834
CA,California,Napa,6055,38.507,-122.3306,136070
CA,California,Nevada,6057,39.3013,-120.7689,102452
CA,California,Orange,6059,33.7031,-117.7609,3164063
CA,California,Placer,6061,39.0634,-120.7177,412435
CA,California,Plumas,6063,40.0046,-120.8385,19607
CA,California,Riverside,6065,33.7436,-115.9938,2449909
CA,California,Sacramento,6067,38.4493,-121.3443,1584047
CA,California,San Benito,6069,36.6057,-121.075,66056
CA,California,San Bernardino,6071,34.8414,-116.1785,2187816
CA,California,San Diego,6073,33.0343,-116.735,3282782
CA,California,San Francisco,6075,37.7556,-122.445,836321
CA,California,San Joaquin,6077,37.9348,-121.2714,787416
CA,California,San Luis Obispo,6079,35.3871,-120.4043,281486
CA,California,San Mateo,6081,37.4228,-122.3291,745100
CA,California,Santa Barbara,6083,34.6729,-120.0169,443975
CA,California,Santa Clara,6085,37.2318,-121.6951,1903297
CA,California,Santa Cruz,6087,37.0562,-122.0018,266021
CA,California,Shasta,6089,40.7637,-122.0405,181554
CA,California,Sierra,6091,39.5803,-120.5161,2731
CA,California,Siskiyou,6093,41.5927,-122.5404,43834
CA,California,Solano,6095,38.27,-121.9328,450824
CA,California,Sonoma,6097,38.529,-122.8882,485642
CA,California,Stanislaus,6099,37.5591,-120.9977,552250
CA,California,Sutter,6101,39.0346,-121.6948,98971
CA,California,Tehama,6103,40.1256,-122.2341,65520
CA,California,Trinity,6105,40.6507,-123.1126,15886
CA,California,Tulare,6107,36.2202,-118.8005,475774
CA,California,Tuolumne,6109,38.0276,-119.9548,54873
CA,California,Ventura,6111,34.4561,-119.0836,838259
CA,California,Yolo,6113,38.6866,-121.9011,217782
CA,California,Yuba,6115,39.269,-121.3513,83079
CO,Colorado,Adams,8001,39.8736,-104.3379,524408
CO,Colorado,Alamosa,8003,37.5729,-105.7883,16515
CO,Colorado,Arapahoe,8005,39.6498,-104.3393,655709
CO,Colorado,Archuleta,8007,37.1935,-107.0483,13730
CO,Colorado,Baca,8009,37.3192,-102.5604,3460
CO,Colorado,Bent,8011,37.9551,-103.0717,5524
CO,Colorado,Boulder,8013,40.0925,-105.3577,328317
CO,Colorado,Broomfield,8014,39.9541,-105.0527,75110
CO,Colorado,Chaffee,8015,38.747,-106.1941,19876
CO,Colorado,Cheyenne,8017,38.8279,-102.6036,1732
CO,Colorado,Clear Creek,8019,39.6891,-105.6444,9358
CO,Colorado,Conejos,8021,37.2007,-106.1916,7536
CO,Colorado,Costilla,8023,37.2781,-105.4282,3571
CO,Colorado,Crowley,8025,38.3266,-103.7845,5734
CO,Colorado,Custer,8027,38.1087,-105.3675,5073
CO,Colorado,Delta,8029,38.8614,-107.8629,31353
CO,Colorado,Denver,8031,39.762,-104.8758,713734
CO,Colorado,Dolores,8033,37.7517,-108.5174,2385
CO,Colorado,Douglas,8035,39.3298,-104.9293,368283
CO,Colorado,Eagle,8037,39.6278,-106.6953,55374
CO,Colorado,Elbert,8039,39.2865,-104.1357,27152
CO,Colorado,El Paso,8041,38.8321,-104.5254,736008
CO,Colorado,Fremont,8043,38.4731,-105.4395,49394
CO,Colorado,Garfield,8045,39.5993,-107.904,62034
CO,Colorado,Gilpin,8047,39.8575,-105.5226,5877
CO,Colorado,Grand,8049,40.1026,-106.1183,15794
CO,Colorado,Gunnison,8051,38.6667,-107.0316,17158
CO,Colorado,Hinsdale,8053,37.8213,-107.3003,939
CO,Colorado,Huerfano,8055,37.6847,-104.9606,6946
CO,Colorado,Jackson,8057,40.6664,-106.3428,1422
CO,Colorado,Jefferson,8059,39.5864,-105.2505,579715
CO,Colorado,Kiowa,8061,38.4326,-102.7402,1356
CO,Colorado,Kit Carson,8063,39.3055,-102.603,7015
CO,Colorado,Lake,8065,39.2025,-106.3448,7411
CO,Colorado,La Plata,8067,37.2866,-107.8433,56088
CO,Colorado,Larimer,8069,40.6664,-105.4611,363561
CO,Colorado,Las Animas,8071,37.3158,-104.0386,14392
CO,Colorado,Lincoln,8073,38.9881,-103.514,5561
CO,Colorado,Logan,8075,40.7247,-103.1101,21067
CO,Colorado,Mesa,8077,39.0183,-108.4664,157316
CO,Colorado,Mineral,8079,37.6689,-106.9241,799
CO,Colorado,Moffat,8081,40.6184,-108.2074,13258
CO,Colorado,Montezuma,8083,37.3386,-108.5966,26204
CO,Colorado,Montrose,8085,38.4022,-108.2692,43272
CO,Colorado,Morgan,8087,40.2627,-103.8097,29186
CO,Colorado,Otero,8089,37.9026,-103.7165,18460
CO,Colorado,Ouray,8091,38.1555,-107.7693,5024
CO,Colorado,Park,8093,39.1194,-105.7172,17739
CO,Colorado,Phillips,8095,40.594,-102.3576,4491
CO,Colorado,Pitkin,8097,39.2171,-106.9166,17119
CO,Colorado,Prowers,8099,37.9552,-102.3934,11931
CO,Colorado,Pueblo,8101,38.1735,-104.5127,168726
CO,Colorado,Rio Blanco,8103,39.9798,-108.2171,6518
CO,Colorado,Rio Grande,8105,37.5825,-106.3832,11394
CO,Colorado,Routt,8107,40.4851,-106.9913,24990
CO,Colorado,Saguache,8109,38.0805,-106.2815,6511
CO,Colorado,San Juan,8111,37.764,-107.6762,690
CO,Colorado,San Miguel,8113,38.0038,-108.4059,8026
CO,Colorado,Sedgwick,8115,40.8759,-102.3518,2346
CO,Colorado,Summit,8117,39.6342,-106.1164,30857
CO,Colorado,Teller,8119,38.8824,-105.1617,24774
CO,Colorado,Washington,8121,39.971,-103.2013,4839
CO,Colorado,Weld,8123,40.5548,-104.3925,340711
CO,Colorado,Yuma,8125,40.0029,-102.4243,9921
CT,Connecticut,Capitol,9110,41.8185,-72.572,969029
CT,Connecticut,Greater Bridgeport,9120,41.2428,-73.2314,326296
CT,Connecticut,Lower Connecticut River Valley,9130,41.45,-72.5073,174983
CT,Connecticut,Naugatuck Valley,9140,41.5231,-73.086,452303
CT,Connecticut,Northeastern Connecticut,9150,41.827,-71.9769,95829
CT,Connecticut,Northwest Hills,9160,41.8469,-73.2212,112848
CT,Connecticut,South Central Connecticut,9170,41.3613,-72.8445,566803
CT,Connecticut,Southeastern Connecticut,9180,41.5023,-72.1,279025
CT,Connecticut,Western Connecticut,9190,41.3225,-73.4475,621232
DE,Delaware,Kent,10001,39.086,-75.5686,185043
DE,Delaware,New Castle,10003,39.5768,-75.6527,573030
DE,Delaware,Sussex,10005,38.6606,-75.39,247799
DC,District of Columbia,District of Columbia,11001,38.9047,-77.0163,672079
FL,Florida,Alachua,12001,29.6747,-82.3577,281751
FL,Florida,Baker,12003,30.3311,-82.2846,28186
FL,Florida,Bay,12005,30.2652,-85.6203,181368
FL,Florida,Bradford,12007,29.95,-82.1687,27888
FL,Florida,Brevard,12009,28.2937,-80.7323,620533
FL,Florida,Broward,12011,26.1523,-80.4871,1946127
FL,Florida,Calhoun,12013,30.406,-85.1972,13593
FL,Florida,Charlotte,12015,26.9058,-81.9114,195083
FL,Florida,Citrus,12017,28.8489,-82.4794,158693
FL,Florida,Clay,12019,29.9831,-81.8579,223436
FL,Florida,Collier,12021,26.1108,-81.3474,387681
FL,Florida,Columbia,12023,30.2242,-82.6215,70755
FL,Florida,DeSoto,12027,27.1864,-81.8095,34719
FL,Florida,Dixie,12029,29.6086,-83.1587,16952
FL,Florida,Duval,12031,30.3313,-81.6715,1007189
FL,Florida,Escambia,12033,30.669,-87.363,323275
FL,Florida,Flagler,12035,29.4614,-81.3136,121710
FL,Florida,Franklin,12037,29.8766,-84.8137,12418
FL,Florida,Gadsden,12039,30.5795,-84.6136,43642
FL,Florida,Gilchrist,12041,29.7258,-82.8004,18494
FL,Florida,Glades,12043,26.9564,-81.189,12324
FL,Florida,Gulf,12045,29.9565,-85.2263,14772
FL,Florida,Hamilton,12047,30.4964,-82.9479,13445
FL,Florida,Hardee,12049,27.4927,-81.81,25508
FL,Florida,Hendry,12051,26.5535,-81.1659,40798
FL,Florida,Hernando,12053,28.5537,-82.424,201512
FL,Florida,Highlands,12055,27.3433,-81.341,103808
FL,Florida,Hillsborough,12057,27.9292,-82.3088,1489634
FL,Florida,Holmes,12059,30.8679,-85.814,19626
FL,Florida,Indian River,12061,27.6943,-80.6064,163856
FL,Florida,Jackson,12063,30.7954,-85.2155,47652
FL,Florida,Jefferson,12065,30.4375,-83.8953,14713
FL,Florida,Lafayette,12067,29.9855,-83.1811,8035
FL,Florida,Lake,12069,28.7615,-81.7113,398696
FL,Florida,Lee,12071,26.578,-81.8332,792692
FL,Florida,Leon,12073,30.458,-84.2779,295335
FL,Florida,Levy,12075,29.3184,-82.7434,44276
FL,Florida,Liberty,12077,30.2413,-84.8829,7650
FL,Florida,Madison,12079,30.4441,-83.4701,18113
FL,Florida,Manatee,12081,27.4719,-82.3153,416020
FL,Florida,Marion,12083,29.2102,-82.0567,387697
FL,Florida,Martin,12085,27.0775,-80.4315,160464
FL,Florida,Miami-Dade,12086,25.615,-80.5624,2685296
FL,Florida,Monroe,12087,25.3192,-81.1089,81840
FL,Florida,Nassau,12089,30.6107,-81.8019,94653
FL,Florida,Okaloosa,12091,30.6913,-86.5917,214281
FL,Florida,Okeechobee,12093,27.3864,-80.8886,40249
FL,Florida,Orange,12095,28.5144,-81.3235,1440471
FL,Florida,Osceola,12097,28.0626,-81.1495,406943
FL,Florida,Palm Beach,12099,26.6476,-80.4655,1507453
FL,Florida,Pasco,12101,28.3092,-82.392,588758
FL,Florida,Pinellas,12103,27.9198,-82.7255,960565
FL,Florida,Polk,12105,27.9489,-81.6976,760961
FL,Florida,Putnam,12107,29.6087,-81.7443,74235
FL,Florida,St. Johns,12109,29.9016,-81.4407,292243
FL,Florida,St. Lucie,12111,27.3773,-80.4721,346237
FL,Florida,Santa Rosa,12113,30.7004,-87.0219,193719
FL,Florida,Sarasota,12115,27.1845,-82.3315,449011
FL,Florida,Seminole,12117,28.717,-81.2363,474912
FL,Florida,Sumter,12119,28.7048,-82.081,137536
FL,Florida,Suwannee,12121,30.1956,-82.9915,44484
FL,Florida,Taylor,12123,30.047,-83.6035,21422
FL,Florida,Union,12125,30.0439,-82.3714,15551
FL,Florida,Volusia,12127,29.0584,-81.1819,568229
FL,Florida,Wakulla,12129,30.1673,-84.4007,34608
FL,Florida,Walton,12131,30.6436,-86.1697,79846
FL,Florida,Washington,12133,30.6106,-85.6653,25259
GA,Georgia,Appling,13001,31.7492,-82.2889,18426
GA,Georgia,Atkinson,13003,31.2971,-82.8801,8261
GA,Georgia,Bacon,13005,31.5537,-82.4527,11129
GA,Georgia,Baker,13007,31.3261,-84.4447,2830
GA,Georgia,Baldwin,13009,33.0693,-83.2495,43669
GA,Georgia,Banks,13011,34.3543,-83.4972,18757
GA,Georgia,Barrow,13013,33.9932,-83.7127,86982
GA,Georgia,Bartow,13015,34.2377,-84.8403,111153
GA,Georgia,Ben Hill,13017,31.7598,-83.2205,17138
GA,Georgia,Berrien,13019,31.276,-83.2296,18257
GA,Georgia,Bibb,13021,32.8065,-83.6974,156543
GA,Georgia,Bleckley,13023,32.4345,-83.3278,12414
GA,Georgia,Brantley,13025,31.1969,-81.9819,18171
GA,Georgia,Brooks,13027,30.842,-83.5802,16285
GA,Georgia,Bryan,13029,32.0145,-81.4436,46681
GA,Georgia,Bulloch,13031,32.3968,-81.7432,81372
GA,Georgia,Burke,13033,33.0611,-82.0007,24427
GA,Georgia,Butts,13035,33.2879,-83.9572,26074
GA,Georgia,Calhoun,13037,31.5292,-84.6245,5528
GA,Georgia,Camden,13039,30.9306,-81.6699,56036
GA,Georgia,Candler,13043,32.4034,-82.0737,10972
GA,Georgia,Carroll,13045,33.5828,-85.0798,122187
GA,Georgia,Catoosa,13047,34.9036,-85.1382,68356
GA,Georgia,Charlton,13049,30.7817,-82.1379,12711
GA,Georgia,Chatham,13051,32.0043,-81.1329,298143
GA,Georgia,Chattahoochee,13053,32.347,-84.787,9181
GA,Georgia,Chattooga,13055,34.475,-85.3453,24975
GA,Georgia,Cherokee,13057,34.244,-84.4762,274539
GA,Georgia,Clarke,13059,33.9512,-83.3673,129267
GA,Georgia,Clay,13061,31.6262,-84.9801,2853
GA,Georgia,Clayton,13063,33.542,-84.3576,298771
GA,Georgia,Clinch,13065,30.915,-82.7063,6722
GA,Georgia,Cobb,13067,33.9416,-84.5767,769152
GA,Georgia,Coffee,13069,31.5493,-82.8492,43161
GA,Georgia,Colquitt,13071,31.1884,-83.7688,45907
GA,Georgia,Columbia,13073,33.5441,-82.2641,159638
GA,Georgia,Cook,13075,31.154,-83.4305,17363
GA,Georgia,Coweta,13077,33.3534,-84.7634,150071
GA,Georgia,Crawford,13079,32.7145,-83.9863,12183
GA,Georgia,Crisp,13081,31.9229,-83.7681,19995
GA,Georgia,Dade,13083,34.8546,-85.5044,16196
GA,Georgia,Dawson,13085,34.4443,-84.1706,28704
GA,Georgia,Decatur,13087,30.8783,-84.5791,29118
GA,Georgia,DeKalb,13089,33.7716,-84.2264,762105
GA,Georgia,Dodge,13091,32.1722,-83.1684,19909
GA,Georgia,Dooly,13093,32.1572,-83.7988,11026
GA,Georgia,Dougherty,13095,31.5335,-84.2164,83915
GA,Georgia,Douglas,13097,33.7019,-84.7679,146141
GA,Georgia,Early,13099,31.3228,-84.9037,10683
GA,Georgia,Echols,13101,30.7101,-82.894,3705
GA,Georgia,Effingham,13103,32.3674,-81.3414,67265
GA,Georgia,Elbert,13105,34.1168,-82.8401,19725
GA,Georgia,Emanuel,13107,32.5897,-82.3017,22961
GA,Georgia,Evans,13109,32.1568,-81.8869,10740
GA,Georgia,Fannin,13111,34.8641,-84.3198,25605
GA,Georgia,Fayette,13113,33.4139,-84.4943,120689
GA,Georgia,Floyd,13115,34.2632,-85.2143,98985
GA,Georgia,Forsyth,13117,34.2255,-84.1251,260062
GA,Georgia,Franklin,13119,34.3754,-83.2291,23840
GA,Georgia,Fulton,13121,33.7902,-84.467,1068507
GA,Georgia,Gilmer,13123,34.6912,-84.4556,31976
GA,Georgia,Glascock,13125,33.2293,-82.6107,2913
GA,Georgia,Glynn,13127,31.2309,-81.5407,84987
GA,Georgia,Gordon,13129,34.5032,-84.8759,58336
GA,Georgia,Grady,13131,30.8747,-84.2345,26056
GA,Georgia,Greene,13133,33.5788,-83.1667,19586
GA,Georgia,Gwinnett,13135,33.9619,-84.0236,966972
GA,Georgia,Habersham,13137,34.631,-83.5311,46948
GA,Georgia,Hall,13139,34.3171,-83.8195,208395
GA,Georgia,Hancock,13141,33.2704,-83.0007,8630
GA,Georgia,Haralson,13143,33.7942,-85.211,30720
GA,Georgia,Harris,13145,32.736,-84.9089,35509
GA,Georgia,Hart,13147,34.3509,-82.9642,26484
GA,Georgia,Heard,13149,33.297,-85.1283,11616
GA,Georgia,Henry,13151,33.453,-84.1542,245417
GA,Georgia,Houston,13153,32.459,-83.6662,166902
GA,Georgia,Irwin,13155,31.6022,-83.2764,9385
GA,Georgia,Jackson,13157,34.1339,-83.5664,80640
GA,Georgia,Jasper,13159,33.3165,-83.688,15345
GA,Georgia,Jeff Davis,13161,31.8056,-82.6368,14838
GA,Georgia,Jefferson,13163,33.0549,-82.4182,15468
GA,Georgia,Jenkins,13165,32.7924,-81.9635,8674
GA,Georgia,Johnson,13167,32.7015,-82.6601,9192
GA,Georgia,Jones,13169,33.0251,-83.5605,28526
GA,Georgia,Lamar,13171,33.0765,-84.1395,19098
GA,Georgia,Lanier,13173,31.0379,-83.0628,10094
GA,Georgia,Laurens,13175,32.4636,-82.9222,49619
GA,Georgia,Lee,13177,31.7796,-84.1412,33337
GA,Georgia,Liberty,13179,31.8282,-81.4949,66826
GA,Georgia,Lincoln,13181,33.7936,-82.4512,7773
GA,Georgia,Long,13183,31.7526,-81.7458,17512
GA,Georgia,Lowndes,13185,30.8338,-83.2677,119055
GA,Georgia,Lumpkin,13187,34.5722,-84.0027,33931
GA,Georgia,McDuffie,13189,33.4828,-82.4814,21687
GA,Georgia,McIntosh,13191,31.4963,-81.4103,11187
GA,Georgia,Macon,13193,32.3584,-84.0425,11953
GA,Georgia,Madison,13195,34.1278,-83.209,30914
GA,Georgia,Marion,13197,32.3535,-84.5246,7474
GA,Georgia,Meriwether,13199,33.0406,-84.6883,20757
GA,Georgia,Miller,13201,31.164,-84.7308,5873
GA,Georgia,Mitchell,13205,31.2253,-84.1943,21441
GA,Georgia,Monroe,13207,33.0139,-83.9187,28919
GA,Georgia,Montgomery,13209,32.1734,-82.5348,8675
GA,Georgia,Morgan,13211,33.5909,-83.4923,20614
GA,Georgia,Murray,13213,34.7884,-84.7481,40282
GA,Georgia,Muscogee,13215,32.51,-84.8771,204383
GA,Georgia,Newton,13217,33.555,-83.8502,115530
GA,Georgia,Oconee,13219,33.835,-83.4371,42788
GA,Georgia,Oglethorpe,13221,33.8807,-83.0807,15221
GA,Georgia,Paulding,13223,33.9206,-84.8673,174292
GA,Georgia,Peach,13225,32.5688,-83.8269,28269
GA,Georgia,Pickens,13227,34.4643,-84.4656,34197
GA,Georgia,Pierce,13229,31.3588,-82.2128,19996
GA,Georgia,Pike,13231,33.0923,-84.3892,19540
GA,Georgia,Polk,13233,34.0018,-85.1881,43365
GA,Georgia,Pulaski,13235,32.2323,-83.476,9893
GA,Georgia,Putnam,13237,33.3218,-83.3728,22524
GA,Georgia,Quitman,13239,31.8673,-85.0188,2092
GA,Georgia,Rabun,13241,34.8818,-83.402,17107
GA,Georgia,Randolph,13243,31.7626,-84.7542,6270
GA,Georgia,Richmond,13245,33.3596,-82.0736,206040
GA,Georgia,Rockdale,13247,33.6542,-84.0266,94293
GA,Georgia,Schley,13249,32.2617,-84.3148,4539
GA,Georgia,Screven,13251,32.7506,-81.612,14057
GA,Georgia,Seminole,13253,30.9388,-84.8688,9117
GA,Georgia,Spalding,13255,33.2609,-84.2841,68215
GA,Georgia,Stephens,13257,34.554,-83.2932,26842
GA,Georgia,Stewart,13259,32.0785,-84.8352,4978
GA,Georgia,Sumter,13261,32.0399,-84.197,29174
GA,Georgia,Talbot,13263,32.6995,-84.533,5753
GA,Georgia,Taliaferro,13265,33.5661,-82.8788,1740
GA,Georgia,Tattnall,13267,32.0458,-82.0581,24215
GA,Georgia,Taylor,13269,32.5555,-84.2505,7786
GA,Georgia,Telfair,13271,31.9298,-82.939,12174
GA,Georgia,Terrell,13273,31.777,-84.437,8941
GA,Georgia,Thomas,13275,30.8637,-83.9193,45696
GA,Georgia,Tift,13277,31.4574,-83.5266,41322
GA,Georgia,Toombs,13279,32.1216,-82.3312,26943
GA,Georgia,Towns,13281,34.9167,-83.7373,12739
GA,Georgia,Treutlen,13283,32.4039,-82.5673,6387
GA,Georgia,Troup,13285,33.0335,-85.0284,69821
GA,Georgia,Turner,13287,31.7164,-83.6241,8915
GA,Georgia,Twiggs,13289,32.6672,-83.4271,7869
GA,Georgia,Union,13291,34.8341,-83.9907,25598
GA,Georgia,Upson,13293,32.8813,-84.2994,27856
GA,Georgia,Walker,13295,34.7356,-85.301,68449
GA,Georgia,Walton,13297,33.7816,-83.7339,100361
GA,Georgia,Ware,13299,31.0538,-82.4237,35958
GA,Georgia,Warren,13301,33.4089,-82.6768,5175
GA,Georgia,Washington,13303,32.9695,-82.7959,19893
GA,Georgia,Wayne,13305,31.5515,-81.9168,30519
GA,Georgia,Webster,13307,32.0469,-84.5511,2348
GA,Georgia,Wheeler,13309,32.117,-82.7246,7434
GA,Georgia,White,13311,34.6464,-83.7471,28454
GA,Georgia,Whitfield,13313,34.8056,-84.9672,103118
GA,Georgia,Wilcox,13315,31.9729,-83.4323,8784
GA,Georgia,Wilkes,13317,33.7819,-82.7432,9553
GA,Georgia,Wilkinson,13319,32.8024,-83.1712,8795
GA,Georgia,Worth,13321,31.5515,-83.8509,20575
HI,Hawaii,Hawaii,15001,19.5984,-155.5183,203684
HI,Hawaii,Honolulu,15003,21.4899,-158.0739,1003666
HI,Hawaii,Kalawao,15005,21.1709,-156.9475,43
HI,Hawaii,Kauai,15007,22.04,-159.5961,73610
HI,Hawaii,Maui,15009,20.8596,-156.565,164632
ID,Idaho,Ada,16001,43.4511,-116.2412,508052
ID,Idaho,Adams,16003,44.8895,-116.4538,4599
ID,Idaho,Bannock,16005,42.6685,-112.2246,88457
ID,Idaho,Bear Lake,16007,42.2848,-111.3297,6552
ID,Idaho,Benewah,16009,47.2176,-116.6587,9913
ID,Idaho,Bingham,16011,43.2166,-112.3981,48993
ID,Idaho,Blaine,16013,43.4119,-113.9802,24579
ID,Idaho,Boise,16015,43.9891,-115.7303,8045
ID,Idaho,Bonner,16017,48.3,-116.6011,49456
ID,Idaho,Bonneville,16019,43.3877,-111.6148,127056
ID,Idaho,Boundary,16021,48.7669,-116.4629,12695
ID,Idaho,Butte,16023,43.7229,-113.172,2654
ID,Idaho,Camas,16025,43.4633,-114.8058,1155
ID,Idaho,Canyon,16027,43.6251,-116.7093,242405
ID,Idaho,Caribou,16029,42.7705,-111.5623,7118
ID,Idaho,Cassia,16031,42.2839,-113.6001,25165
ID,Idaho,Clark,16033,44.2839,-112.3512,776
ID,Idaho,Clearwater,16035,46.6736,-115.6567,8921
ID,Idaho,Custer,16037,44.2411,-114.2817,4411
ID,Idaho,Elmore,16039,43.354,-115.4693,29046
ID,Idaho,Franklin,16041,42.1811,-111.8132,14715
ID,Idaho,Fremont,16043,44.2288,-111.4819,13701
ID,Idaho,Gem,16045,44.0615,-116.3975,19854
ID,Idaho,Gooding,16047,42.971,-114.8115,15740
ID,Idaho,Idaho,16049,45.8441,-115.4675,17120
ID,Idaho,Jefferson,16051,43.8201,-112.3113,32234
ID,Idaho,Jerome,16053,42.6899,-114.2639,24788
ID,Idaho,Kootenai,16055,47.6744,-116.7018,177736
ID,Idaho,Latah,16057,46.8162,-116.7117,40315
ID,Idaho,Lemhi,16059,44.9433,-113.9333,8166
ID,Idaho,Lewis,16061,46.237,-116.4263,3649
ID,Idaho,Lincoln,16063,43.0024,-114.1383,5276
ID,Idaho,Madison,16065,43.7841,-111.6592,53578
ID,Idaho,Minidoka,16067,42.8543,-113.6375,21922
ID,Idaho,Nez Perce,16069,46.3268,-116.7502,42477
ID,Idaho,Oneida,16071,42.195,-112.5394,4681
ID,Idaho,Owyhee,16073,42.5814,-116.1699,12284
ID,Idaho,Payette,16075,44.0068,-116.7608,26190
ID,Idaho,Power,16077,42.6937,-112.8407,8018
ID,Idaho,Shoshone,16079,47.3529,-115.8924,13580
ID,Idaho,Teton,16081,43.7594,-111.2076,12101
ID,Idaho,Twin Falls,16083,42.356,-114.6672,92121
ID,Idaho,Valley,16085,44.7666,-115.5663,12136
ID,Idaho,Washington,16087,44.4524,-116.7847,10866
IL,Illinois,Adams,17001,39.9879,-91.1885,65166
IL,Illinois,Alexander,17003,37.1915,-89.3375,5042
IL,Illinois,Bond,17005,38.8868,-89.4355,16627
IL,Illinois,Boone,17007,42.3231,-88.8234,53316
IL,Illinois,Brown,17009,39.9618,-90.7504,6320
IL,Illinois,Bureau,17011,41.4041,-89.5287,33027
IL,Illinois,Calhoun,17013,39.1693,-90.6676,4406
IL,Illinois,Carroll,17015,42.0687,-89.9343,15621
IL,Illinois,Cass,17017,39.9735,-90.2474,12826
IL,Illinois,Champaign,17019,40.1401,-88.1992,206098
IL,Illinois,Christian,17021,39.5458,-89.2773,33684
IL,Illinois,Clark,17023,39.3336,-87.7877,15328
IL,Illinois,Clay,17025,38.7542,-88.4902,13173
IL,Illinois,Clinton,17027,38.6065,-89.4225,36899
IL,Illinois,Coles,17029,39.5203,-88.2218,46689
IL,Illinois,Cook,17031,41.8401,-87.8168,5185812
IL,Illinois,Crawford,17033,39.0027,-87.7596,18588
IL,Illinois,Cumberland,17035,39.2733,-88.2402,10378
IL,Illinois,DeKalb,17037,41.8935,-88.7703,100512
IL,Illinois,De Witt,17039,40.1746,-88.9041,15461
IL,Illinois,Douglas,17041,39.7694,-88.2173,19686
IL,Illinois,DuPage,17043,41.852,-88.0856,927263
IL,Illinois,Edgar,17045,39.6786,-87.7456,16637
IL,Illinois,Edwards,17047,38.4165,-88.0533,6118
IL,Illinois,Effingham,17049,39.0598,-88.5899,34505
IL,Illinois,Fayette,17051,39.0002,-89.0241,21380
IL,Illinois,Ford,17053,40.5972,-88.2233,13396
IL,Illinois,Franklin,17055,37.9923,-88.9242,37541
IL,Illinois,Fulton,17057,40.4728,-90.2075,33259
IL,Illinois,Gallatin,17059,37.7628,-88.2305,4857
IL,Illinois,Greene,17061,39.3562,-90.3905,11837
IL,Illinois,Grundy,17063,41.2851,-88.4185,52920
IL,Illinois,Hamilton,17065,38.0816,-88.5391,7972
IL,Illinois,Hancock,17067,40.4037,-91.1647,17434
IL,Illinois,Hardin,17069,37.5182,-88.2668,3623
IL,Illinois,Henderson,17071,40.818,-90.9251,6284
IL,Illinois,Henry,17073,41.3531,-90.1314,48948
IL,Illinois,Iroquois,17075,40.7473,-87.8243,26746
IL,Illinois,Jackson,17077,37.7851,-89.3821,52706
IL,Illinois,Jasper,17079,39.0101,-88.1538,9233
IL,Illinois,Jefferson,17081,38.3005,-88.924,36808
IL,Illinois,Jersey,17083,39.0855,-90.3565,21336
IL,Illinois,Jo Daviess,17085,42.3658,-90.2126,21918
IL,Illinois,Johnson,17087,37.4597,-88.8809,13350
IL,Illinois,Kane,17089,41.9388,-88.4286,516097
IL,Illinois,Kankakee,17091,41.1377,-87.8618,106833
IL,Illinois,Kendall,17093,41.5906,-88.4288,135053
IL,Illinois,Knox,17095,40.9318,-90.2132,49294
IL,Illinois,Lake,17097,42.3233,-88.0037,711885
IL,Illinois,LaSalle,17099,41.344,-88.8859,109049
IL,Illinois,Lawrence,17101,38.72,-87.7268,15137
IL,Illinois,Lee,17103,41.7461,-89.3003,34058
IL,Illinois,Livingston,17105,40.8916,-88.5577,35659
IL,Illinois,Logan,17107,40.1245,-89.3675,27870
IL,Illinois,McDonough,17109,40.4562,-90.6779,27102
IL,Illinois,McHenry,17111,42.3244,-88.4523,311366
IL,Illinois,McLean,17113,40.4909,-88.8473,170882
IL,Illinois,Macon,17115,39.86,-88.9616,102591
IL,Illinois,Macoupin,17117,39.261,-89.9245,44566
IL,Illinois,Madison,17119,38.8297,-89.9049,264631
IL,Illinois,Marion,17121,38.6496,-88.919,37294
IL,Illinois,Marshall,17123,41.0332,-89.3448,11715
IL,Illinois,Mason,17125,40.2396,-89.9168,12878
IL,Illinois,Massac,17127,37.2189,-88.7076,13958
IL,Illinois,Menard,17129,40.0274,-89.8022,12169
IL,Illinois,Mercer,17131,41.2053,-90.7414,15619
IL,Illinois,Monroe,17133,38.2785,-90.1773,34969
IL,Illinois,Montgomery,17135,39.231,-89.4789,28078
IL,Illinois,Morgan,17137,39.7156,-90.2015,32621
IL,Illinois,Moultrie,17139,39.6415,-88.6193,14469
IL,Illinois,Ogle,17141,42.0426,-89.3207,51536
IL,Illinois,Peoria,17143,40.788,-89.7601,179831
IL,Illinois,Perry,17145,38.0837,-89.367,20810
IL,Illinois,Piatt,17147,40.0103,-88.5911,16702
IL,Illinois,Pike,17149,39.6225,-90.8863,14625
IL,Illinois,Pope,17151,37.4127,-88.5615,3757
IL,Illinois,Pulaski,17153,37.2232,-89.1266,5074
IL,Illinois,Putnam,17155,41.2045,-89.2858,5600
IL,Illinois,Randolph,17157,38.0521,-89.8252,30142
IL,Illinois,Richland,17159,38.7124,-88.0851,15675
IL,Illinois,Rock Island,17161,41.4673,-90.5674,142995
IL,Illinois,St. Clair,17163,38.4703,-89.9284,254777
IL,Illinois,Saline,17165,37.7531,-88.5407,23387
IL,Illinois,Sangamon,17167,39.7582,-89.6589,195217
IL,Illinois,Schuyler,17169,40.158,-90.6151,6826
IL,Illinois,Scott,17171,39.6441,-90.4747,4847
IL,Illinois,Shelby,17173,39.3911,-88.8055,20867
IL,Illinois,Stark,17175,41.0934,-89.7975,5324
IL,Illinois,Stephenson,17177,42.3518,-89.6623,44042
IL,Illinois,Tazewell,17179,40.5075,-89.5135,130555
IL,Illinois,Union,17181,37.4713,-89.2551,16972
IL,Illinois,Vermilion,17183,40.1834,-87.7328,73179
IL,Illinois,Wabash,17185,38.4461,-87.8443,11199
IL,Illinois,Warren,17187,40.8488,-90.615,16576
IL,Illinois,Washington,17189,38.3522,-89.4105,13682
IL,Illinois,Wayne,17191,38.4296,-88.4256,15994
IL,Illinois,White,17193,38.0875,-88.1796,13708
IL,Illinois,Whiteside,17195,41.7562,-89.9141,55192
IL,Illinois,Will,17197,41.445,-87.9786,698450
IL,Illinois,Williamson,17199,37.7303,-88.9299,66902
IL,Illinois,Winnebago,17201,42.3363,-89.1609,283289
IL,Illinois,Woodford,17203,40.7883,-89.2113,38348
IN,Indiana,Adams,18001,40.7457,-84.9367,35995
IN,Indiana,Allen,18003,41.0909,-85.0665,388791
IN,Indiana,Bartholomew,18005,39.206,-85.8976,82881
IN,Indiana,Benton,18007,40.6063,-87.3109,8708
IN,Indiana,Blackford,18009,40.4736,-85.3249,12007
IN,Indiana,Boone,18011,40.0508,-86.4687,72827
IN,Indiana,Brown,18013,39.1962,-86.2274,15543
IN,Indiana,Carroll,18015,40.5828,-86.5635,20443
IN,Indiana,Cass,18017,40.7615,-86.346,37703
IN,Indiana,Clark,18019,38.4772,-85.7073,122800
IN,Indiana,Clay,18021,39.3928,-87.1158,26431
IN,Indiana,Clinton,18023,40.3017,-86.4751,32967
IN,Indiana,Crawford,18025,38.2924,-86.4517,10494
IN,Indiana,Daviess,18027,38.7024,-87.072,33442
IN,Indiana,Dearborn,18029,39.1452,-84.9732,50828
IN,Indiana,Decatur,18031,39.307,-85.5011,26411
IN,Indiana,DeKalb,18033,41.3976,-84.9991,43584
IN,Indiana,Delaware,18035,40.2275,-85.3969,112109
IN,Indiana,Dubois,18037,38.3643,-86.8798,43563
IN,Indiana,Elkhart,18039,41.5974,-85.8587,206868
IN,Indiana,Fayette,18041,39.64,-85.1788,23390
IN,Indiana,Floyd,18043,38.3187,-85.907,80512
IN,Indiana,Fountain,18045,40.1209,-87.242,16546
IN,Indiana,Franklin,18047,39.4149,-85.0602,22929
IN,Indiana,Fulton,18049,41.047,-86.2635,20411
IN,Indiana,Gibson,18051,38.3119,-87.5846,32986
IN,Indiana,Grant,18053,40.5158,-85.6547,66377
IN,Indiana,Greene,18055,39.0364,-86.9621,30954
IN,Indiana,Hamilton,18057,40.0725,-86.052,357176
IN,Indiana,Hancock,18059,39.8236,-85.7732,82013
IN,Indiana,Harrison,18061,38.1951,-86.1115,39785
IN,Indiana,Hendricks,18063,39.7695,-86.51,179379
IN,Indiana,Henry,18065,39.9311,-85.3964,48896
IN,Indiana,Howard,18067,40.4836,-86.1169,83610
IN,Indiana,Huntington,18069,40.8292,-85.4881,36757
IN,Indiana,Jackson,18071,38.9064,-86.0375,46319
IN,Indiana,Jasper,18073,41.023,-87.1161,33198
IN,Indiana,Jay,18075,40.4379,-85.0056,20281
IN,Indiana,Jefferson,18077,38.7858,-85.4386,33074
IN,Indiana,Jennings,18079,38.9969,-85.6281,27584
IN,Indiana,Johnson,18081,39.49,-86.1016,163983
IN,Indiana,Knox,18083,38.6891,-87.418,36108
IN,Indiana,Kosciusko,18085,41.2441,-85.8607,80357
IN,Indiana,LaGrange,18087,41.6426,-85.4265,40596
IN,Indiana,Lake,18089,41.4167,-87.3821,498990
IN,Indiana,LaPorte,18091,41.546,-86.74,112141
IN,Indiana,Lawrence,18093,38.8412,-86.4835,45077
IN,Indiana,Madison,18095,40.1616,-85.7194,130949
IN,Indiana,Marion,18097,39.7817,-86.1385,971822
IN,Indiana,Marshall,18099,41.3248,-86.2618,46225
IN,Indiana,Martin,18101,38.708,-86.8031,9854
IN,Indiana,Miami,18103,40.7695,-86.045,35772
IN,Indiana,Monroe,18105,39.1609,-86.5231,139822
IN,Indiana,Montgomery,18107,40.0404,-86.8933,38155
IN,Indiana,Morgan,18109,39.4816,-86.4462,72202
IN,Indiana,Newton,18111,40.9558,-87.3976,13859
IN,Indiana,Noble,18113,41.3986,-85.4175,47417
IN,Indiana,Ohio,18115,38.9501,-84.9651,5993
IN,Indiana,Orange,18117,38.5418,-86.4951,19746
IN,Indiana,Owen,18119,39.3128,-86.8377,21434
IN,Indiana,Parke,18121,39.7736,-87.2064,16346
IN,Indiana,Perry,18123,38.0796,-86.638,19218
IN,Indiana,Pike,18125,38.3988,-87.2322,12187
IN,Indiana,Porter,18127,41.4603,-87.0672,174150
IN,Indiana,Posey,18129,38.0218,-87.8685,25163
IN,Indiana,Pulaski,18131,41.0419,-86.6988,12441
IN,Indiana,Putnam,18133,39.6663,-86.845,37091
IN,Indiana,Randolph,18135,40.1576,-85.0113,24425
IN,Indiana,Ripley,18137,39.1035,-85.2624,29039
IN,Indiana,Rush,18139,39.62,-85.4658,16734
IN,Indiana,St. Joseph,18141,41.6166,-86.2899,272574
IN,Indiana,Scott,18143,38.6851,-85.7475,24468
IN,Indiana,Shelby,18145,39.5237,-85.7917,45104
IN,Indiana,Spencer,18147,38.0141,-87.0077,19871
IN,Indiana,Starke,18149,41.2809,-86.6476,23300
IN,Indiana,Steuben,18151,41.6439,-85.0008,34648
IN,Indiana,Sullivan,18153,39.0889,-87.4147,20766
IN,Indiana,Switzerland,18155,38.8262,-85.037,9914
IN,Indiana,Tippecanoe,18157,40.3886,-86.8941,187399
IN,Indiana,Tipton,18159,40.3113,-86.0519,15329
IN,Indiana,Union,18161,39.6256,-84.9252,7028
IN,Indiana,Vanderburgh,18163,38.0249,-87.5859,179908
IN,Indiana,Vermillion,18165,39.8538,-87.464,15452
IN,Indiana,Vigo,18167,39.4306,-87.39,106201
IN,Indiana,Wabash,18169,40.8457,-85.794,30901
IN,Indiana,Warren,18171,40.3469,-87.3533,8469
IN,Indiana,Warrick,18173,38.0922,-87.2721,64650
IN,Indiana,Washington,18175,38.6,-86.1053,28167
IN,Indiana,Wayne,18177,39.8644,-85.0099,66377
IN,Indiana,Wells,18179,40.7293,-85.2212,28261
IN,Indiana,White,18181,40.7498,-86.8655,24709
IN,Indiana,Whitley,18183,41.1394,-85.5051,34388
IA,Iowa,Adair,19001,41.3307,-94.471,7471
IA,Iowa,Adams,19003,41.029,-94.6992,3641
IA,Iowa,Allamakee,19005,43.2843,-91.3781,14038
IA,Iowa,Appanoose,19007,40.7432,-92.8686,12242
IA,Iowa,Audubon,19009,41.6846,-94.9058,5622
IA,Iowa,Benton,19011,42.0802,-92.0657,25698
IA,Iowa,Black Hawk,19013,42.4701,-92.3088,130693
IA,Iowa,Boone,19015,42.0365,-93.9316,26669
IA,Iowa,Bremer,19017,42.7746,-92.3181,25118
IA,Iowa,Buchanan,19019,42.4708,-91.8379,20645
IA,Iowa,Buena Vista,19021,42.7355,-95.1511,20684
IA,Iowa,Butler,19023,42.7316,-92.7902,14301
IA,Iowa,Calhoun,19025,42.3852,-94.6404,9858
IA,Iowa,Carroll,19027,42.0362,-94.8605,20677
IA,Iowa,Cass,19029,41.3315,-94.9278,13115
IA,Iowa,Cedar,19031,41.7723,-91.1324,18427
IA,Iowa,Cerro Gordo,19033,43.0816,-93.2608,42785
IA,Iowa,Cherokee,19035,42.7356,-95.6238,11587
IA,Iowa,Chickasaw,19037,43.0601,-92.3177,11868
IA,Iowa,Clarke,19039,41.029,-93.7852,9690
IA,Iowa,Clay,19041,43.0826,-95.1509,16446
IA,Iowa,Clayton,19043,42.8447,-91.3414,17069
IA,Iowa,Clinton,19045,41.898,-90.532,46383
IA,Iowa,Crawford,19047,42.0372,-95.382,16289
IA,Iowa,Dallas,19049,41.6849,-94.0398,104136
IA,Iowa,Davis,19051,40.7477,-92.4097,9127
IA,Iowa,Decatur,19053,40.7377,-93.7863,7669
IA,Iowa,Delaware,19055,42.4712,-91.3673,17549
IA,Iowa,Des Moines,19057,40.9232,-91.1815,38597
IA,Iowa,Dickinson,19059,43.378,-95.1508,17844
IA,Iowa,Dubuque,19061,42.4688,-90.8825,98948
IA,Iowa,Emmet,19063,43.3781,-94.6785,9316
IA,Iowa,Fayette,19065,42.8626,-91.8444,19393
IA,Iowa,Floyd,19067,43.0599,-92.789,15502
IA,Iowa,Franklin,19069,42.7325,-93.2625,9977
IA,Iowa,Fremont,19071,40.7456,-95.6047,6570
IA,Iowa,Greene,19073,42.0363,-94.3968,8722
IA,Iowa,Grundy,19075,42.4019,-92.7914,12352
IA,Iowa,Guthrie,19077,41.6837,-94.5011,10646
IA,Iowa,Hamilton,19079,42.3838,-93.7068,14893
IA,Iowa,Hancock,19081,43.0819,-93.7343,10718
IA,Iowa,Hardin,19083,42.3839,-93.2404,16729
IA,Iowa,Harrison,19085,41.6829,-95.8168,14645
IA,Iowa,Henry,19087,40.988,-91.5445,20228
IA,Iowa,Howard,19089,43.3568,-92.3172,9459
IA,Iowa,Humboldt,19091,42.7765,-94.2072,9573
IA,Iowa,Ida,19093,42.3869,-95.5135,6944
IA,Iowa,Iowa,19095,41.6863,-92.0655,16547
IA,Iowa,Jackson,19097,42.1717,-90.5743,19429
IA,Iowa,Jasper,19099,41.686,-93.0538,37864
IA,Iowa,Jefferson,19101,41.0318,-91.9489,15676
IA,Iowa,Johnson,19103,41.6715,-91.5881,154881
IA,Iowa,Jones,19105,42.1212,-91.1315,20799
IA,Iowa,Keokuk,19107,41.3365,-92.1786,9964
IA,Iowa,Kossuth,19109,43.2041,-94.2067,14610
IA,Iowa,Lee,19111,40.642,-91.4793,33175
IA,Iowa,Linn,19113,42.079,-91.599,229463
IA,Iowa,Louisa,19115,41.2185,-91.2596,10710
IA,Iowa,Lucas,19117,41.0294,-93.3277,8685
IA,Iowa,Lyon,19119,43.3805,-96.2102,12087
IA,Iowa,Madison,19121,41.3307,-94.0156,16760
IA,Iowa,Mahaska,19123,41.3352,-92.6409,22045
IA,Iowa,Marion,19125,41.3344,-93.0994,33551
IA,Iowa,Marshall,19127,42.0358,-92.9988,39971
IA,Iowa,Mills,19129,41.0334,-95.6213,14563
IA,Iowa,Mitchell,19131,43.3564,-92.789,10548
IA,Iowa,Monona,19133,42.0516,-95.9599,8619
IA,Iowa,Monroe,19135,41.0298,-92.869,7546
IA,Iowa,Montgomery,19137,41.0301,-95.1564,10254
IA,Iowa,Muscatine,19139,41.4839,-91.1127,42735
IA,Iowa,O'Brien,19141,43.0838,-95.6249,14103
IA,Iowa,Osceola,19143,43.3786,-95.6237,6114
IA,Iowa,Page,19145,40.7391,-95.1502,15168
IA,Iowa,Palo Alto,19147,43.0821,-94.6781,8902
IA,Iowa,Plymouth,19149,42.7378,-96.2141,25699
IA,Iowa,Pocahontas,19151,42.7342,-94.6787,7040
IA,Iowa,Polk,19153,41.6854,-93.5734,497441
IA,Iowa,Pottawattamie,19155,41.3366,-95.5423,93407
IA,Iowa,Poweshiek,19157,41.6864,-92.5315,18582
IA,Iowa,Ringgold,19159,40.7352,-94.244,4664
IA,Iowa,Sac,19161,42.3862,-95.1054,9759
IA,Iowa,Scott,19163,41.6371,-90.6232,174302
IA,Iowa,Shelby,19165,41.6851,-95.3102,11757
IA,Iowa,Sioux,19167,43.0826,-96.1779,35984
IA,Iowa,Story,19169,42.0362,-93.465,98592
IA,Iowa,Tama,19171,42.0798,-92.5326,16982
IA,Iowa,Taylor,19173,40.7374,-94.6964,5901
IA,Iowa,Union,19175,41.0277,-94.2424,12038
IA,Iowa,Van Buren,19177,40.7532,-91.95,7236
IA,Iowa,Wapello,19179,41.0306,-92.4095,35265
IA,Iowa,Warren,19181,41.3343,-93.5615,53484
IA,Iowa,Washington,19183,41.3356,-91.7179,22539
IA,Iowa,Wayne,19185,40.7395,-93.3274,6518
IA,Iowa,Webster,19187,42.4279,-94.1818,36848
IA,Iowa,Winnebago,19189,43.3776,-93.7342,10648
IA,Iowa,Winneshiek,19191,43.2907,-91.8437,19972
IA,Iowa,Woodbury,19193,42.3897,-96.0448,105760
IA,Iowa,Worth,19195,43.3774,-93.2608,7380
IA,Iowa,Wright,19197,42.7331,-93.7352,12817
KS,Kansas,Allen,20001,37.8857,-95.3014,12491
KS,Kansas,Anderson,20003,38.2142,-95.2933,7819
KS,Kansas,Atchison,20005,39.5318,-95.3135,16211
KS,Kansas,Barber,20007,37.2289,-98.6848,4153
KS,Kansas,Barton,20009,38.479,-98.7565,25275
KS,Kansas,Bourbon,20011,37.8552,-94.8493,14384
KS,Kansas,Brown,20013,39.8265,-95.5642,9415
KS,Kansas,Butler,20015,37.7812,-96.839,67916
KS,Kansas,Chase,20017,38.302,-96.594,2579
KS,Kansas,Chautauqua,20019,37.15,-96.2454,3370
KS,Kansas,Cherokee,20021,37.1693,-94.8463,19236
KS,Kansas,Cheyenne,20023,39.7859,-101.7319,2628
KS,Kansas,Clark,20025,37.2355,-99.8203,1987
KS,Kansas,Clay,20027,39.3497,-97.1652,8071
KS,Kansas,Cloud,20029,39.4803,-97.6493,8973
KS,Kansas,Coffey,20031,38.2369,-95.7341,8304
KS,Kansas,Comanche,20033,37.1913,-99.2718,1685
KS,Kansas,Cowley,20035,37.2377,-96.8375,34487
KS,Kansas,Crawford,20037,37.5073,-94.8518,38963
KS,Kansas,Decatur,20039,39.7847,-100.4599,2746
KS,Kansas,Dickinson,20041,38.8665,-97.1527,18423
KS,Kansas,Doniphan,20043,39.7881,-95.1468,7492
KS,Kansas,Douglas,20045,38.8847,-95.2926,119547
KS,Kansas,Edwards,20047,37.8876,-99.3122,2817
KS,Kansas,Elk,20049,37.4537,-96.2441,2464
KS,Kansas,Ellis,20051,38.9147,-99.3173,28870
KS,Kansas,Ellsworth,20053,38.6966,-98.2047,6366
KS,Kansas,Finney,20055,38.0443,-100.737,38001
KS,Kansas,Ford,20057,37.6917,-99.888,34133
KS,Kansas,Franklin,20059,38.5645,-95.2859,25994
KS,Kansas,Geary,20061,39.0024,-96.7525,35895
KS,Kansas,Gove,20063,38.9161,-100.483,2796
KS,Kansas,Graham,20065,39.3497,-99.8832,2406
KS,Kansas,Grant,20067,37.5623,-101.308,7284
KS,Kansas,Gray,20069,37.7382,-100.4379,5696
KS,Kansas,Greeley,20071,38.4806,-101.806,1296
KS,Kansas,Greenwood,20073,37.8778,-96.2326,5956
KS,Kansas,Hamilton,20075,37.9991,-101.7912,2485
KS,Kansas,Harper,20077,37.1916,-98.0755,5446
KS,Kansas,Harvey,20079,38.0432,-97.4272,33823
KS,Kansas,Haskell,20081,37.5622,-100.8712,3695
KS,Kansas,Hodgeman,20083,38.0875,-99.8979,1676
KS,Kansas,Jackson,20085,39.4168,-95.7937,13277
KS,Kansas,Jefferson,20087,39.2358,-95.3834,18391
KS,Kansas,Jewell,20089,39.7847,-98.2183,2909
KS,Kansas,Johnson,20091,38.8838,-94.8223,614764
KS,Kansas,Kearny,20093,38.0003,-101.3199,3910
KS,Kansas,Kingman,20095,37.5589,-98.1363,7284
KS,Kansas,Kiowa,20097,37.5582,-99.2861,2422
KS,Kansas,Labette,20099,37.1913,-95.2976,19949
KS,Kansas,Lane,20101,38.4813,-100.4664,1497
KS,Kansas,Leavenworth,20103,39.1993,-95.038,82493
KS,Kansas,Lincoln,20105,39.0453,-98.2077,2924
KS,Kansas,Linn,20107,38.2123,-94.843,9723
KS,Kansas,Logan,20109,38.9173,-101.1484,2720
KS,Kansas,Lyon,20111,38.4562,-96.1526,32145
KS,Kansas,McPherson,20113,38.3917,-97.648,30130
KS,Kansas,Marion,20115,38.3589,-97.0969,11795
KS,Kansas,Marshall,20117,39.7836,-96.5229,10001
KS,Kansas,Meade,20119,37.2382,-100.3662,3949
KS,Kansas,Miami,20121,38.5635,-94.8381,34625
KS,Kansas,Mitchell,20123,39.3933,-98.2094,5767
KS,Kansas,Montgomery,20125,37.1925,-95.7429,31143
KS,Kansas,Morris,20127,38.6874,-96.6499,5388
KS,Kansas,Morton,20129,37.1914,-101.7992,2647
KS,Kansas,Nemaha,20131,39.7834,-96.0141,10213
KS,Kansas,Neosho,20133,37.5585,-95.3068,15715
KS,Kansas,Ness,20135,38.4794,-99.9161,2659
KS,Kansas,Norton,20137,39.7844,-99.9035,5392
KS,Kansas,Osage,20139,38.6523,-95.7269,15780
KS,Kansas,Osborne,20141,39.3503,-98.7679,3473
KS,Kansas,Ottawa,20143,39.1325,-97.6502,5782
KS,Kansas,Pawnee,20145,38.1813,-99.2367,6220
KS,Kansas,Phillips,20147,39.7846,-99.347,4874
KS,Kansas,Pottawatomie,20149,39.379,-96.3424,25808
KS,Kansas,Pratt,20151,37.6477,-98.7396,9120
KS,Kansas,Rawlins,20153,39.7852,-101.0765,2533
KS,Kansas,Reno,20155,37.953,-98.086,61693
KS,Kansas,Republic,20157,39.8278,-97.6506,4662
KS,Kansas,Rice,20159,38.3472,-98.201,9389
KS,Kansas,Riley,20161,39.2966,-96.7352,71710
KS,Kansas,Rooks,20163,39.3502,-99.325,4869
KS,Kansas,Rush,20165,38.5231,-99.3092,2957
KS,Kansas,Russell,20167,38.9148,-98.7624,6717
KS,Kansas,Saline,20169,38.7838,-97.65,53801
KS,Kansas,Scott,20171,38.4822,-100.9069,5071
KS,Kansas,Sedgwick,20173,37.6848,-97.461,524810
KS,Kansas,Seward,20175,37.1933,-100.8513,21640
KS,Kansas,Shawnee,20177,39.0415,-95.7565,178315
KS,Kansas,Sheridan,20179,39.3503,-100.4418,2442
KS,Kansas,Sherman,20181,39.3514,-101.72,5919
KS,Kansas,Smith,20183,39.7852,-98.7855,3579
KS,Kansas,Stafford,20185,38.031,-98.7174,4004
KS,Kansas,Stanton,20187,37.563,-101.7842,2018
KS,Kansas,Stevens,20189,37.1923,-101.3121,5212
KS,Kansas,Sumner,20191,37.2373,-97.4765,22386
KS,Kansas,Thomas,20193,39.3509,-101.0555,7913
KS,Kansas,Trego,20195,38.9143,-99.8728,2778
KS,Kansas,Wabaunsee,20197,38.9533,-96.205,6961
KS,Kansas,Wallace,20199,38.9167,-101.7636,1459
KS,Kansas,Washington,20201,39.7842,-97.0875,5519
KS,Kansas,Wichita,20203,38.4821,-101.3474,2115
KS,Kansas,Wilson,20205,37.5593,-95.7434,8559
KS,Kansas,Woodson,20207,37.8867,-95.7401,3118
KS,Kansas,Wyandotte,20209,39.1146,-94.7646,167277
KY,Kentucky,Adair,21001,37.1042,-85.2806,19016
KY,Kentucky,Allen,21003,36.7513,-86.1904,21029
KY,Kentucky,Anderson,21005,38.0039,-84.991,24098
KY,Kentucky,Ballard,21007,37.0585,-88.9995,7678
KY,Kentucky,Barren,21009,36.9656,-85.9337,44670
KY,Kentucky,Bath,21011,38.145,-83.7427,12812
KY,Kentucky,Bell,21013,36.7306,-83.6741,23878
KY,Kentucky,Boone,21015,38.9699,-84.7278,137676
KY,Kentucky,Bourbon,21017,38.2067,-84.2171,20174
KY,Kentucky,Boyd,21019,38.3596,-82.6878,48043
KY,Kentucky,Boyle,21021,37.6244,-84.8668,30708
KY,Kentucky,Bracken,21023,38.6888,-84.0901,8427
KY,Kentucky,Breathitt,21025,37.5216,-83.3241,13438
KY,Kentucky,Breckinridge,21027,37.7734,-86.4293,20722
KY,Kentucky,Bullitt,21029,37.9701,-85.6959,83209
KY,Kentucky,Butler,21031,37.2073,-86.6816,12373
KY,Kentucky,Caldwell,21033,37.1454,-87.8679,12631
KY,Kentucky,Calloway,21035,36.621,-88.2723,37882
KY,Kentucky,Campbell,21037,38.9465,-84.3795,93193
KY,Kentucky,Carlisle,21039,36.8532,-88.971,4763
KY,Kentucky,Carroll,21041,38.6678,-85.1236,10878
KY,Kentucky,Carter,21043,38.3182,-83.0495,26515
KY,Kentucky,Casey,21045,37.3223,-84.9283,15951
KY,Kentucky,Christian,21047,36.8941,-87.4904,72599
KY,Kentucky,Clark,21049,37.9708,-84.1474,37004
KY,Kentucky,Clay,21051,37.1597,-83.7146,20105
KY,Kentucky,Clinton,21053,36.7274,-85.1362,9240
KY,Kentucky,Crittenden,21055,37.3527,-88.0972,8972
KY,Kentucky,Cumberland,21057,36.7866,-85.3885,5948
KY,Kentucky,Daviess,21059,37.7318,-87.0873,103195
KY,Kentucky,Edmonson,21061,37.2088,-86.2384,12243
KY,Kentucky,Elliott,21063,38.1179,-83.0976,7336
KY,Kentucky,Estill,21065,37.6924,-83.9643,14079
KY,Kentucky,Fayette,21067,38.0423,-84.4587,321122
KY,Kentucky,Fleming,21069,38.3701,-83.6967,15221
KY,Kentucky,Floyd,21071,37.5571,-82.7457,35342
KY,Kentucky,Franklin,21073,38.2392,-84.877,51563
KY,Kentucky,Fulton,21075,36.554,-89.1874,6440
KY,Kentucky,Gallatin,21077,38.7569,-84.8593,8749
KY,Kentucky,Garrard,21079,37.6396,-84.5377,17346
KY,Kentucky,Grant,21081,38.6488,-84.6246,25238
KY,Kentucky,Graves,21083,36.7231,-88.6512,36612
KY,Kentucky,Grayson,21085,37.4608,-86.3439,26586
KY,Kentucky,Green,21087,37.264,-85.5531,11278
KY,Kentucky,Greenup,21089,38.5457,-82.9223,35639
KY,Kentucky,Hancock,21091,37.8415,-86.7779,9032
KY,Kentucky,Hardin,21093,37.6979,-85.9634,111452
KY,Kentucky,Harlan,21095,36.8569,-83.218,26185
KY,Kentucky,Harrison,21097,38.4418,-84.3314,18971
KY,Kentucky,Hart,21099,37.2999,-85.8847,19470
KY,Kentucky,Henderson,21101,37.7958,-87.5729,44493
KY,Kentucky,Henry,21103,38.4485,-85.1189,15774
KY,Kentucky,Hickman,21105,36.6781,-88.9761,4470
KY,Kentucky,Hopkins,21107,37.3088,-87.5408,45143
KY,Kentucky,Jackson,21109,37.4198,-84.0058,13003
KY,Kentucky,Jefferson,21111,38.1872,-85.6591,777392
KY,Kentucky,Jessamine,21113,37.872,-84.5809,53792
KY,Kentucky,Johnson,21115,37.8466,-82.8315,22464
KY,Kentucky,Kenton,21117,38.9334,-84.5333,169817
KY,Kentucky,Knott,21119,37.354,-82.9541,14046
KY,Kentucky,Knox,21121,36.8906,-83.854,30034
KY,Kentucky,Larue,21123,37.5458,-85.6979,15028
KY,Kentucky,Laurel,21125,37.1107,-84.1178,62731
KY,Kentucky,Lawrence,21127,38.0679,-82.7348,16171
KY,Kentucky,Lee,21129,37.5948,-83.7162,7375
KY,Kentucky,Leslie,21131,37.0941,-83.3811,10261
KY,Kentucky,Letcher,21133,37.1212,-82.8553,21146
KY,Kentucky,Lewis,21135,38.5315,-83.3781,13028
KY,Kentucky,Lincoln,21137,37.4554,-84.6608,24415
KY,Kentucky,Livingston,21139,37.2096,-88.3537,8941
KY,Kentucky,Logan,21141,36.8597,-86.8789,27731
KY,Kentucky,Lyon,21143,37.0191,-88.0832,8831
KY,Kentucky,McCracken,21145,37.054,-88.7128,67584
KY,Kentucky,McCreary,21147,36.7371,-84.4842,16905
KY,Kentucky,McLean,21149,37.5292,-87.2636,9127
KY,Kentucky,Madison,21151,37.7202,-84.278,94064
KY,Kentucky,Magoffin,21153,37.7065,-83.0649,11495
KY,Kentucky,Marion,21155,37.5525,-85.2696,19680
KY,Kentucky,Marshall,21157,36.8835,-88.3294,31728
KY,Kentucky,Martin,21159,37.8016,-82.5132,11181
KY,Kentucky,Mason,21161,38.5952,-83.8242,16995
KY,Kentucky,Meade,21163,37.9697,-86.217,30032
KY,Kentucky,Menifee,21165,37.9414,-83.5989,6203
KY,Kentucky,Mercer,21167,37.811,-84.8745,22824
KY,Kentucky,Metcalfe,21169,36.9905,-85.6292,10372
KY,Kentucky,Monroe,21171,36.7122,-85.7165,11318
KY,Kentucky,Montgomery,21173,38.0335,-83.9131,28271
KY,Kentucky,Morgan,21175,37.9223,-83.2589,13938
KY,Kentucky,Muhlenberg,21177,37.2158,-87.142,30712
KY,Kentucky,Nelson,21179,37.8052,-85.466,47102
KY,Kentucky,Nicholas,21181,38.3356,-84.0153,7655
KY,Kentucky,Ohio,21183,37.4782,-86.8489,23704
KY,Kentucky,Oldham,21185,38.3994,-85.4483,68600
KY,Kentucky,Owen,21187,38.5197,-84.8281,11270
KY,Kentucky,Owsley,21189,37.4192,-83.6831,4021
KY,Kentucky,Pendleton,21191,38.6956,-84.3603,14683
KY,Kentucky,Perry,21193,37.2443,-83.2215,27847
KY,Kentucky,Pike,21195,37.4691,-82.3958,57466
KY,Kentucky,Powell,21197,37.8311,-83.8237,13057
KY,Kentucky,Pulaski,21199,37.1039,-84.5772,65503
KY,Kentucky,Robertson,21201,38.5188,-84.052,2239
KY,Kentucky,Rockcastle,21203,37.3652,-84.316,16144
KY,Kentucky,Rowan,21205,38.1963,-83.4211,24525
KY,Kentucky,Russell,21207,36.9911,-85.0587,18117
KY,Kentucky,Scott,21209,38.2916,-84.5839,58269
KY,Kentucky,Shelby,21211,38.2155,-85.1948,48599
KY,Kentucky,Simpson,21213,36.742,-86.5823,19786
KY,Kentucky,Spencer,21215,38.0325,-85.3278,19875
KY,Kentucky,Taylor,21217,37.3665,-85.3279,26205
KY,Kentucky,Todd,21219,36.8357,-87.1792,12330
KY,Kentucky,Trigg,21221,36.8064,-87.8733,14211
KY,Kentucky,Trimble,21223,38.613,-85.3375,8531
KY,Kentucky,Union,21225,37.6584,-87.9454,13379
KY,Kentucky,Warren,21227,36.9936,-86.4238,137549
KY,Kentucky,Washington,21229,37.7534,-85.1748,12091
KY,Kentucky,Wayne,21231,36.8013,-84.8286,19592
KY,Kentucky,Webster,21233,37.5184,-87.6832,12873
KY,Kentucky,Whitley,21235,36.7581,-84.1452,36755
KY,Kentucky,Wolfe,21237,37.7393,-83.4932,6484
KY,Kentucky,Woodford,21239,38.0424,-84.7436,27017
LA,Louisiana,Acadia,22001,30.2906,-92.412,57218
LA,Louisiana,Allen,22003,30.653,-92.828,22552
LA,Louisiana,Ascension,22005,30.2036,-90.9113,128593
LA,Louisiana,Assumption,22007,29.9024,-91.0608,20720
LA,Louisiana,Avoyelles,22009,31.0763,-92.0014,39176
LA,Louisiana,Beauregard,22011,30.6486,-93.3432,36646
LA,Louisiana,Bienville,22013,32.3473,-93.0561,12769
LA,Louisiana,Bossier,22015,32.6784,-93.6049,129134
LA,Louisiana,Caddo,22017,32.5806,-93.8823,232973
LA,Louisiana,Calcasieu,22019,30.2293,-93.3581,208668
LA,Louisiana,Caldwell,22021,32.0925,-92.1166,9563
LA,Louisiana,Cameron,22023,29.8754,-93.1937,5222
LA,Louisiana,Catahoula,22025,31.6662,-91.847,8738
LA,Louisiana,Claiborne,22027,32.8227,-92.9958,14019
LA,Louisiana,Concordia,22029,31.4459,-91.6401,18325
LA,Louisiana,De Soto,22031,32.0554,-93.7373,26897
LA,Louisiana,East Baton Rouge,22033,30.5383,-91.0956,452821
LA,Louisiana,East Carroll,22035,32.7325,-91.235,7195
LA,Louisiana,East Feliciana,22037,30.8451,-91.0455,19378
LA,Louisiana,Evangeline,22039,30.7289,-92.4059,32162
LA,Louisiana,Franklin,22041,32.1333,-91.6738,19590
LA,Louisiana,Grant,22043,31.5997,-92.5595,22123
LA,Louisiana,Iberia,22045,29.8967,-91.7308,69194
LA,Louisiana,Iberville,22047,30.2586,-91.3495,29950
LA,Louisiana,Jackson,22049,32.302,-92.5578,14939
LA,Louisiana,Jefferson,22051,29.7882,-90.1276,432484
LA,Louisiana,Jefferson Davis,22053,30.2677,-92.8141,32083
LA,Louisiana,Lafayette,22055,30.2068,-92.0639,245075
LA,Louisiana,Lafourche,22057,29.5662,-90.4256,96670
LA,Louisiana,LaSalle,22059,31.6769,-92.1605,14804
LA,Louisiana,Lincoln,22061,32.6016,-92.6649,48160
LA,Louisiana,Livingston,22063,30.4401,-90.7279,145583
LA,Louisiana,Madison,22065,32.3644,-91.2427,9757
LA,Louisiana,Morehouse,22067,32.8202,-91.8018,24967
LA,Louisiana,Natchitoches,22069,31.7234,-93.0962,37047
LA,Louisiana,Orleans,22071,30.0687,-89.9289,376035
LA,Louisiana,Ouachita,22073,32.4784,-92.1549,158916
LA,Louisiana,Plaquemines,22075,29.4406,-89.61,23070
LA,Louisiana,Pointe Coupee,22077,30.7095,-91.6008,20438
LA,Louisiana,Rapides,22079,31.1986,-92.5332,128470
LA,Louisiana,Red River,22081,32.0931,-93.3398,7529
LA,Louisiana,Richland,22083,32.4178,-91.7635,19908
LA,Louisiana,Sabine,22085,31.564,-93.5547,22085
LA,Louisiana,St. Bernard,22087,29.8691,-89.5549,44172
LA,Louisiana,St. Charles,22089,29.9055,-90.3582,51863
LA,Louisiana,St. Helena,22091,30.822,-90.7103,10849
LA,Louisiana,St. James,22093,30.027,-90.7931,19797
LA,Louisiana,St. John the Baptist,22095,30.1264,-90.4709,41342
LA,Louisiana,St. Landry,22097,30.5989,-92.0058,82128
LA,Louisiana,St. Martin,22099,30.1291,-91.6083,51559
LA,Louisiana,St. Mary,22101,29.7207,-91.4486,48455
LA,Louisiana,St. Tammany,22103,30.4103,-89.9584,269331
LA,Louisiana,Tangipahoa,22105,30.6266,-90.4057,135218
LA,Louisiana,Tensas,22107,32.0019,-91.3401,3992
LA,Louisiana,Terrebonne,22109,29.4148,-90.8663,107362
LA,Louisiana,Union,22111,32.8318,-92.3748,20914
LA,Louisiana,Vermilion,22113,29.8465,-92.3242,57031
LA,Louisiana,Vernon,22115,31.1083,-93.1843,47764
LA,Louisiana,Washington,22117,30.8533,-90.0405,45238
LA,Louisiana,Webster,22119,32.7135,-93.335,36189
LA,Louisiana,West Baton Rouge,22121,30.4636,-91.3127,27666
LA,Louisiana,West Carroll,22123,32.7885,-91.4568,9622
LA,Louisiana,West Feliciana,22125,30.8798,-91.42,15381
LA,Louisiana,Winn,22127,31.9442,-92.6369,13506
ME,Maine,Androscoggin,23001,44.1658,-70.2064,112323
ME,Maine,Aroostook,23003,46.6589,-68.5989,67227
ME,Maine,Cumberland,23005,43.8466,-70.3996,305940
ME,Maine,Franklin,23007,44.974,-70.444,30145
ME,Maine,Hancock,23009,44.6647,-68.3584,56084
ME,Maine,Kennebec,23011,44.4091,-69.7673,125614
ME,Maine,Knox,23013,44.141,-69.1686,40860
ME,Maine,Lincoln,23015,44.0665,-69.5434,35840
ME,Maine,Oxford,23017,44.4999,-70.7566,58728
ME,Maine,Penobscot,23019,45.4006,-68.6495,153571
ME,Maine,Piscataquis,23021,45.8374,-69.2846,17125
ME,Maine,Sagadahoc,23023,43.9598,-69.8546,37093
ME,Maine,Somerset,23025,45.5139,-69.9589,50852
ME,Maine,Waldo,23027,44.5028,-69.1454,40006
ME,Maine,Washington,23029,45.0307,-67.6287,31261
ME,Maine,York,23031,43.4782,-70.7144,214731
MD,Maryland,Allegany,24001,39.6214,-78.6976,67762
MD,Maryland,Anne Arundel,24003,39.0065,-76.6051,590936
MD,Maryland,Baltimore,24005,39.4629,-76.6395,849586
MD,Maryland,Calvert,24009,38.5434,-76.5687,93791
MD,Maryland,Caroline,24011,38.8717,-75.8316,33406
MD,Maryland,Carroll,24013,39.5629,-77.0225,174318
MD,Maryland,Cecil,24015,39.5712,-75.9407,104366
MD,Maryland,Charles,24017,38.5073,-76.9922,168710
MD,Maryland,Dorchester,24019,38.4829,-76.0126,32612
MD,Maryland,Frederick,24021,39.4722,-77.398,280341
MD,Maryland,Garrett,24023,39.5289,-79.2729,28713
MD,Maryland,Harford,24025,39.5611,-76.3171,262509
MD,Maryland,Howard,24027,39.2507,-76.9312,333916
MD,Maryland,Kent,24029,39.2556,-76.039,19265
MD,Maryland,Montgomery,24031,39.1363,-77.2042,1057586
MD,Maryland,Prince George's,24033,38.8295,-76.8473,955584
MD,Maryland,Queen Anne's,24035,39.068,-76.02,50951
MD,Maryland,St. Mary's,24037,38.3024,-76.6058,114372
MD,Maryland,Somerset,24039,38.1158,-75.7518,24685
MD,Maryland,Talbot,24041,38.7714,-76.0971,37707
MD,Maryland,Washington,24043,39.6036,-77.814,155033
MD,Maryland,Wicomico,24045,38.3733,-75.6208,104117
MD,Maryland,Worcester,24047,38.2128,-75.334,53279
MD,Maryland,Baltimore,24510,39.3051,-76.6144,577193
MA,Massachusetts,Barnstable,25001,41.7244,-70.2903,230073
MA,Massachusetts,Berkshire,25003,42.3707,-73.2063,128047
MA,Massachusetts,Bristol,25005,41.7972,-71.1145,578436
MA,Massachusetts,Dukes,25007,41.3961,-70.65,20751
MA,Massachusetts,Essex,25009,42.6732,-70.9524,807258
MA,Massachusetts,Franklin,25011,42.5831,-72.5918,70922
MA,Massachusetts,Hampden,25013,42.1351,-72.6316,462853
MA,Massachusetts,Hampshire,25015,42.3402,-72.6638,156595
MA,Massachusetts,Middlesex,25017,42.4856,-71.3918,1622896
MA,Massachusetts,Nantucket,25019,41.2831,-70.0692,14299
MA,Massachusetts,Norfolk,25021,42.1603,-71.2118,724540
MA,Massachusetts,Plymouth,25023,41.9511,-70.8115,531889
MA,Massachusetts,Suffolk,25025,42.3329,-71.0735,782172
MA,Massachusetts,Worcester,25027,42.3514,-71.9077,861664
MI,Michigan,Alcona,26001,44.6854,-83.5938,10310
MI,Michigan,Alger,26003,46.4086,-86.604,8813
MI,Michigan,Allegan,26005,42.5913,-85.8883,120913
MI,Michigan,Alpena,26007,45.0348,-83.6282,28908
MI,Michigan,Antrim,26009,44.9991,-85.1402,23876
MI,Michigan,Arenac,26011,44.0655,-83.8952,15054
MI,Michigan,Baraga,26013,46.6626,-88.3652,8249
MI,Michigan,Barry,26015,42.595,-85.309,62982
MI,Michigan,Bay,26017,43.7075,-83.9924,103235
MI,Michigan,Benzie,26019,44.6387,-86.0155,18177
MI,Michigan,Berrien,26021,41.9547,-86.4123,153411
MI,Michigan,Branch,26023,41.9161,-85.059,44914
MI,Michigan,Calhoun,26025,42.2465,-85.0056,133846
MI,Michigan,Cass,26027,41.9154,-85.9935,51606
MI,Michigan,Charlevoix,26029,45.2995,-85.124,26143
MI,Michigan,Cheboygan,26031,45.4463,-84.4999,25778
MI,Michigan,Chippewa,26033,46.3053,-84.578,36448
MI,Michigan,Clare,26035,43.9879,-84.8478,31109
MI,Michigan,Clinton,26037,42.9437,-84.6015,79419
MI,Michigan,Crawford,26039,44.6837,-84.6103,13271
MI,Michigan,Delta,26041,45.9193,-86.9241,36829
MI,Michigan,Dickinson,26043,46.0092,-87.8703,25940
MI,Michigan,Eaton,26045,42.5961,-84.8383,109000
MI,Michigan,Emmet,26047,45.5202,-84.8904,34159
MI,Michigan,Genesee,26049,43.0217,-83.7067,404087
MI,Michigan,Gladwin,26051,43.9907,-84.3883,25543
MI,Michigan,Gogebic,26053,46.4087,-89.6943,14348
MI,Michigan,Grand Traverse,26055,44.6687,-85.5605,95757
MI,Michigan,Gratiot,26057,43.2927,-84.6049,41478
MI,Michigan,Hillsdale,26059,41.8878,-84.5929,45658
MI,Michigan,Houghton,26061,46.8976,-88.6875,37428
MI,Michigan,Huron,26063,43.8333,-83.019,31258
MI,Michigan,Ingham,26065,42.5971,-84.3735,282015
MI,Michigan,Ionia,26067,42.9451,-85.0746,66706
MI,Michigan,Iosco,26069,44.3559,-83.6359,25333
MI,Michigan,Iron,26071,46.2087,-88.5305,11650
MI,Michigan,Isabella,26073,43.6406,-84.8468,64475
MI,Michigan,Jackson,26075,42.2485,-84.4234,160187
MI,Michigan,Kalamazoo,26077,42.2455,-85.5312,261437
MI,Michigan,Kalkaska,26079,44.6847,-85.0902,18116
MI,Michigan,Kent,26081,43.0322,-85.5493,658844
MI,Michigan,Keweenaw,26083,47.628,-88.4346,2106
MI,Michigan,Lake,26085,43.9901,-85.8016,12393
MI,Michigan,Lapeer,26087,43.0901,-83.2218,88703
MI,Michigan,Leelanau,26089,44.9385,-85.812,22607
MI,Michigan,Lenawee,26091,41.8951,-84.0664,98823
MI,Michigan,Livingston,26093,42.6029,-83.9115,195143
MI,Michigan,Luce,26095,46.4706,-85.5444,6325
MI,Michigan,Mackinac,26097,46.0805,-85.0872,10865
MI,Michigan,Macomb,26099,42.6957,-82.9323,877624
MI,Michigan,Manistee,26101,44.333,-86.0568,25247
MI,Michigan,Marquette,26103,46.4313,-87.6416,66430
MI,Michigan,Mason,26105,43.9952,-86.25,29177
MI,Michigan,Mecosta,26107,43.6408,-85.3246,40321
MI,Michigan,Menominee,26109,45.5801,-87.5566,23295
MI,Michigan,Midland,26111,43.6468,-84.3881,83641
MI,Michigan,Missaukee,26113,44.3374,-85.0947,15156
MI,Michigan,Monroe,26115,41.9291,-83.5394,155001
MI,Michigan,Montcalm,26117,43.311,-85.1525,67174
MI,Michigan,Montmorency,26119,45.0276,-84.1272,9372
MI,Michigan,Muskegon,26121,43.2912,-86.152,175378
MI,Michigan,Newaygo,26123,43.5542,-85.8009,50414
MI,Michigan,Oakland,26125,42.6604,-83.3858,1272294
MI,Michigan,Oceana,26127,43.641,-86.2675,26788
MI,Michigan,Ogemaw,26129,44.335,-84.1264,20853
MI,Michigan,Ontonagon,26131,46.6644,-89.3148,5870
MI,Michigan,Osceola,26133,43.9898,-85.3252,23122
MI,Michigan,Oscoda,26135,44.6818,-84.1298,8338
MI,Michigan,Otsego,26137,45.0214,-84.599,25352
MI,Michigan,Ottawa,26139,42.9599,-85.996,298614
MI,Michigan,Presque Isle,26141,45.3401,-83.918,13142
MI,Michigan,Roscommon,26143,44.3356,-84.6116,23639
MI,Michigan,Saginaw,26145,43.335,-84.0532,189210
MI,Michigan,St. Clair,26147,42.9341,-82.6806,160089
MI,Michigan,St. Joseph,26149,41.9144,-85.5278,60870
MI,Michigan,Sanilac,26151,43.4236,-82.8203,40574
MI,Michigan,Schoolcraft,26153,46.1966,-86.1996,8093
MI,Michigan,Shiawassee,26155,42.9537,-84.1467,68061
MI,Michigan,Tuscola,26157,43.4641,-83.4167,53071
MI,Michigan,Van Buren,26159,42.2513,-86.0188,75681
MI,Michigan,Washtenaw,26161,42.2532,-83.8388,368394
MI,Michigan,Wayne,26163,42.2822,-83.283,1773767
MI,Michigan,Wexford,26165,44.3383,-85.5785,33868
MN,Minnesota,Aitkin,27001,46.6082,-93.4155,15930
MN,Minnesota,Anoka,27003,45.2733,-93.2465,367095
MN,Minnesota,Becker,27005,46.9346,-95.674,35260
MN,Minnesota,Beltrami,27007,47.9738,-94.9377,46421
MN,Minnesota,Benton,27009,45.6991,-93.9988,41458
MN,Minnesota,Big Stone,27011,45.4261,-96.411,5152
MN,Minnesota,Blue Earth,27013,44.0346,-94.067,69386
MN,Minnesota,Brown,27015,44.2421,-94.7276,25826
MN,Minnesota,Carlton,27017,46.5924,-92.677,36457
MN,Minnesota,Carver,27019,44.8207,-93.8026,108622
MN,Minnesota,Cass,27021,46.9496,-94.3254,30688
MN,Minnesota,Chippewa,27023,45.0223,-95.5667,12388
MN,Minnesota,Chisago,27025,45.5025,-92.9083,57434
MN,Minnesota,Clay,27027,46.8923,-96.4906,65628
MN,Minnesota,Clearwater,27029,47.5777,-95.379,8579
MN,Minnesota,Cook,27031,47.9026,-90.5354,5633
MN,Minnesota,Cottonwood,27033,44.0071,-95.1812,11458
MN,Minnesota,Crow Wing,27035,46.4824,-94.0709,67113
MN,Minnesota,Dakota,27037,44.6719,-93.0654,442204
MN,Minnesota,Dodge,27039,44.0226,-92.8621,20962
MN,Minnesota,Douglas,27041,45.9338,-95.4535,39354
MN,Minnesota,Faribault,27043,43.6739,-93.948,13909
MN,Minnesota,Fillmore,27045,43.674,-92.0902,21346
MN,Minnesota,Freeborn,27047,43.6738,-93.3488,30752
MN,Minnesota,Goodhue,27049,44.4097,-92.7229,47844
MN,Minnesota,Grant,27051,45.9341,-96.0122,6108
MN,Minnesota,Hennepin,27053,45.0046,-93.477,1268903
MN,Minnesota,Houston,27055,43.6714,-91.4929,18768
MN,Minnesota,Hubbard,27057,47.1086,-94.9166,21700
MN,Minnesota,Isanti,27059,45.5615,-93.2951,41934
MN,Minnesota,Itasca,27061,47.5095,-93.6319,45141
MN,Minnesota,Jackson,27063,43.6742,-95.1541,9964
MN,Minnesota,Kanabec,27065,45.9452,-93.2934,16261
MN,Minnesota,Kandiyohi,27067,45.1524,-95.0047,43757
MN,Minnesota,Kittson,27069,48.7766,-96.7829,4163
MN,Minnesota,Koochiching,27071,48.2453,-93.7834,11950
MN,Minnesota,Lac qui Parle,27073,44.9955,-96.1735,6694
MN,Minnesota,Lake,27075,47.6411,-91.4458,10911
MN,Minnesota,Lake of the Woods,27077,48.7712,-94.9046,3800
MN,Minnesota,Le Sueur,27079,44.3714,-93.7301,28936
MN,Minnesota,Lincoln,27081,44.4126,-96.2671,5594
MN,Minnesota,Lyon,27083,44.4135,-95.839,25498
MN,Minnesota,McLeod,27085,44.8236,-94.2724,36771
MN,Minnesota,Mahnomen,27087,47.3253,-95.8091,5371
MN,Minnesota,Marshall,27089,48.3581,-96.3685,8961
MN,Minnesota,Martin,27091,43.6744,-94.5511,19864
MN,Minnesota,Meeker,27093,45.1231,-94.5273,23422
MN,Minnesota,Mille Lacs,27095,45.938,-93.6301,26912
MN,Minnesota,Morrison,27097,46.0126,-94.2684,34131
MN,Minnesota,Mower,27099,43.6715,-92.7525,40069
MN,Minnesota,Murray,27101,44.0221,-95.7633,8119
MN,Minnesota,Nicollet,27103,44.3499,-94.2475,34350
MN,Minnesota,Nobles,27105,43.6742,-95.7534,22067
MN,Minnesota,Norman,27107,47.3265,-96.4553,6411
MN,Minnesota,Olmsted,27109,44.0038,-92.4018,163425
MN,Minnesota,Otter Tail,27111,46.4088,-95.708,60281
MN,Minnesota,Pennington,27113,48.0662,-96.0367,13877
MN,Minnesota,Pine,27115,46.1208,-92.7413,29411
MN,Minnesota,Pipestone,27117,44.023,-96.2587,9352
MN,Minnesota,Polk,27119,47.7739,-96.4019,30905
MN,Minnesota,Pope,27121,45.586,-95.4445,11363
MN,Minnesota,Ramsey,27123,45.0171,-93.0996,544438
MN,Minnesota,Red Lake,27125,47.8717,-96.0953,3922
MN,Minnesota,Redwood,27127,44.4037,-95.2538,15383
MN,Minnesota,Renville,27129,44.7268,-94.9471,14587
MN,Minnesota,Rice,27131,44.3543,-93.2967,67389
MN,Minnesota,Rock,27133,43.6747,-96.2532,9628
MN,Minnesota,Roseau,27135,48.7751,-95.8108,15301
MN,Minnesota,St. Louis,27137,47.6031,-92.4707,200056
MN,Minnesota,Scott,27139,44.6485,-93.5359,152957
MN,Minnesota,Sherburne,27141,45.444,-93.7748,99178
MN,Minnesota,Sibley,27143,44.5795,-94.2321,14933
MN,Minnesota,Stearns,27145,45.5522,-94.6131,159358
MN,Minnesota,Steele,27147,44.0223,-93.2261,37413
MN,Minnesota,Stevens,27149,45.5861,-96.0003,9686
MN,Minnesota,Swift,27151,45.2827,-95.6815,9787
MN,Minnesota,Todd,27153,46.0706,-94.8976,25402
MN,Minnesota,Traverse,27155,45.7722,-96.4716,3279
MN,Minnesota,Wabasha,27157,44.2843,-92.2303,21519
MN,Minnesota,Wadena,27159,46.5858,-94.9694,14135
MN,Minnesota,Waseca,27161,44.0221,-93.5873,18958
MN,Minnesota,Washington,27163,45.0388,-92.8838,272298
MN,Minnesota,Watonwan,27165,43.9784,-94.6141,11169
MN,Minnesota,Wilkin,27167,46.357,-96.4683,6413
MN,Minnesota,Winona,27169,43.9869,-91.7792,49705
MN,Minnesota,Wright,27171,45.174,-93.963,145270
MN,Minnesota,Yellow Medicine,27173,44.7162,-95.8684,9509
MS,Mississippi,Adams,28001,31.4829,-91.3535,29098
MS,Mississippi,Alcorn,28003,34.8808,-88.5803,34500
MS,Mississippi,Amite,28005,31.1744,-90.8044,12611
MS,Mississippi,Attala,28007,33.0863,-89.5815,17685
MS,Mississippi,Benton,28009,34.8173,-89.1885,7592
MS,Mississippi,Bolivar,28011,33.7971,-90.8805,30163
MS,Mississippi,Calhoun,28013,33.9365,-89.3365,13029
MS,Mississippi,Carroll,28015,33.4485,-89.9202,9828
MS,Mississippi,Chickasaw,28017,33.9208,-88.9479,16994
MS,Mississippi,Choctaw,28019,33.3473,-89.2484,8172
MS,Mississippi,Claiborne,28021,31.9737,-90.9118,8908
MS,Mississippi,Clarke,28023,32.0414,-88.6894,15424
MS,Mississippi,Clay,28025,33.6556,-88.7816,18462
MS,Mississippi,Coahoma,28027,34.23,-90.6018,20808
MS,Mississippi,Copiah,28029,31.8692,-90.4488,27994
MS,Mississippi,Covington,28031,31.6332,-89.5526,18226
MS,Mississippi,DeSoto,28033,34.8753,-89.9912,188598
MS,Mississippi,Forrest,28035,31.1889,-89.2579,78027
MS,Mississippi,Franklin,28037,31.4772,-90.8979,7655
MS,Mississippi,George,28039,30.8626,-88.644,24870
MS,Mississippi,Greene,28041,31.2142,-88.6392,13595
MS,Mississippi,Grenada,28043,33.7699,-89.802,21342
MS,Mississippi,Hancock,28045,30.4165,-89.489,46057
MS,Mississippi,Harrison,28047,30.5122,-89.116,209443
MS,Mississippi,Hinds,28049,32.2667,-90.4429,222494
MS,Mississippi,Holmes,28051,33.1235,-90.0921,16491
MS,Mississippi,Humphreys,28053,33.1287,-90.5266,7570
MS,Mississippi,Issaquena,28055,32.7415,-90.9892,1095
MS,Mississippi,Itawamba,28057,34.28,-88.3613,23942
MS,Mississippi,Jackson,28059,30.5425,-88.6358,144437
MS,Mississippi,Jasper,28061,32.0191,-89.1189,16211
MS,Mississippi,Jefferson,28063,31.7342,-91.0373,7127
MS,Mississippi,Jefferson Davis,28065,31.5697,-89.823,11183
MS,Mississippi,Jones,28067,31.6225,-89.1688,66839
MS,Mississippi,Kemper,28069,32.7546,-88.6412,8855
MS,Mississippi,Lafayette,28071,34.3568,-89.4849,56920
MS,Mississippi,Lamar,28073,31.206,-89.5087,65081
MS,Mississippi,Lauderdale,28075,32.4043,-88.6625,71984
MS,Mississippi,Lawrence,28077,31.5502,-90.107,11883
MS,Mississippi,Leake,28079,32.7535,-89.524,21288
MS,Mississippi,Lee,28081,34.2899,-88.6804,83138
MS,Mississippi,Leflore,28083,33.5505,-90.3011,27432
MS,Mississippi,Lincoln,28085,31.5324,-90.454,34830
MS,Mississippi,Lowndes,28087,33.4729,-88.4433,58187
MS,Mississippi,Madison,28089,32.6347,-90.0337,110303
MS,Mississippi,Marion,28091,31.2308,-89.8224,24303
MS,Mississippi,Marshall,28093,34.7623,-89.5031,33899
MS,Mississippi,Monroe,28095,33.8923,-88.4805,33928
MS,Mississippi,Montgomery,28097,33.4941,-89.6164,9708
MS,Mississippi,Neshoba,28099,32.7535,-89.1176,28927
MS,Mississippi,Newton,28101,32.4002,-89.1188,21151
MS,Mississippi,Noxubee,28103,33.1102,-88.5698,10136
MS,Mississippi,Oktibbeha,28105,33.4249,-88.8793,51473
MS,Mississippi,Panola,28107,34.3639,-89.9506,32965
MS,Mississippi,Pearl River,28109,30.7688,-89.5896,56781
MS,Mississippi,Perry,28111,31.172,-88.9924,11459
MS,Mississippi,Pike,28113,31.1748,-90.4042,39930
MS,Mississippi,Pontotoc,28115,34.2254,-89.0374,31312
MS,Mississippi,Prentiss,28117,34.6183,-88.5201,24999
MS,Mississippi,Quitman,28119,34.2514,-90.2891,5908
MS,Mississippi,Rankin,28121,32.2641,-89.9458,158218
MS,Mississippi,Scott,28123,32.4064,-89.5376,27754
MS,Mississippi,Sharkey,28125,32.8798,-90.8132,3848
MS,Mississippi,Simpson,28127,31.9132,-89.9195,25817
MS,Mississippi,Smith,28129,32.0177,-89.5067,14193
MS,Mississippi,Stone,28131,30.79,-89.1177,18515
MS,Mississippi,Sunflower,28133,33.6023,-90.5886,25328
MS,Mississippi,Tallahatchie,28135,33.9505,-90.1733,12363
MS,Mississippi,Tate,28137,34.6503,-89.9448,28135
MS,Mississippi,Tippah,28139,34.7684,-88.9089,21621
MS,Mississippi,Tishomingo,28141,34.7404,-88.2393,18738
MS,Mississippi,Tunica,28143,34.6507,-90.375,9586
MS,Mississippi,Union,28145,34.4905,-89.0038,28009
MS,Mississippi,Walthall,28147,31.1484,-90.1061,13864
MS,Mississippi,Warren,28149,32.3573,-90.852,43623
MS,Mississippi,Washington,28151,33.2839,-90.9474,43674
MS,Mississippi,Wayne,28153,31.6408,-88.6958,19699
MS,Mississippi,Webster,28155,33.6131,-89.2848,9942
MS,Mississippi,Wilkinson,28157,31.1611,-91.3109,8376
MS,Mississippi,Winston,28159,33.0885,-89.0344,17609
MS,Mississippi,Yalobusha,28161,34.0282,-89.7077,12439
MS,Mississippi,Yazoo,28163,32.7803,-90.3964,26837
MO,Missouri,Adair,29001,40.1906,-92.6007,25224
MO,Missouri,Andrew,29003,39.9835,-94.8021,18086
MO,Missouri,Atchison,29005,40.4308,-95.4281,5216
MO,Missouri,Audrain,29007,39.2157,-91.8416,24688
MO,Missouri,Barry,29009,36.7099,-93.8291,34831
MO,Missouri,Barton,29011,37.5023,-94.3471,11685
MO,Missouri,Bates,29013,38.2573,-94.34,16121
MO,Missouri,Benton,29015,38.2949,-93.2879,19887
MO,Missouri,Bollinger,29017,37.3222,-90.0259,10591
MO,Missouri,Boone,29019,38.9906,-92.3097,185874
MO,Missouri,Buchanan,29021,39.6598,-94.8059,83855
MO,Missouri,Butler,29023,36.7164,-90.4066,42166
MO,Missouri,Caldwell,29025,39.6557,-93.9827,8890
MO,Missouri,Callaway,29027,38.8355,-91.926,44541
MO,Missouri,Camden,29029,38.027,-92.766,43416
MO,Missouri,Cape Girardeau,29031,37.384,-89.6845,82180
MO,Missouri,Carroll,29033,39.427,-93.5052,8459
MO,Missouri,Carter,29035,36.9412,-90.9623,5269
MO,Missouri,Cass,29037,38.647,-94.3549,109393
MO,Missouri,Cedar,29039,37.7239,-93.8566,14440
MO,Missouri,Chariton,29041,39.5151,-92.9626,7406
MO,Missouri,Christian,29043,36.9696,-93.1889,91229
MO,Missouri,Clark,29045,40.4103,-91.7384,6680
MO,Missouri,Clay,29047,39.3105,-94.4209,255566
MO,Missouri,Clinton,29049,39.6018,-94.4046,21259
MO,Missouri,Cole,29051,38.5054,-92.2816,76924
MO,Missouri,Cooper,29053,38.8435,-92.8101,16835
MO,Missouri,Crawford,29055,37.9764,-91.3039,22890
MO,Missouri,Dade,29057,37.4321,-93.8503,7627
MO,Missouri,Dallas,29059,37.6804,-93.0237,17344
MO,Missouri,Daviess,29061,39.9608,-93.9855,8449
MO,Missouri,DeKalb,29063,39.8932,-94.4047,11176
MO,Missouri,Dent,29065,37.6066,-91.5079,14506
MO,Missouri,Douglas,29067,36.9326,-92.4988,11850
MO,Missouri,Dunklin,29069,36.2721,-90.0909,27795
MO,Missouri,Franklin,29071,38.4111,-91.075,105316
MO,Missouri,Gasconade,29073,38.4409,-91.5079,14774
MO,Missouri,Gentry,29075,40.2121,-94.4099,6224
MO,Missouri,Greene,29077,37.2581,-93.342,301121
MO,Missouri,Grundy,29079,40.1139,-93.5653,9822
MO,Missouri,Harrison,29081,40.3547,-93.992,8198
MO,Missouri,Henry,29083,38.3852,-93.7928,22194
MO,Missouri,Hickory,29085,37.9408,-93.3207,8501
MO,Missouri,Holt,29087,40.0944,-95.2155,4254
MO,Missouri,Howard,29089,39.1425,-92.6963,10141
MO,Missouri,Howell,29091,36.774,-91.8865,40168
MO,Missouri,Iron,29093,37.5552,-90.7734,9482
MO,Missouri,Jackson,29095,39.0085,-94.3461,717021
MO,Missouri,Jasper,29097,37.2036,-94.3406,123532
MO,Missouri,Jefferson,29099,38.261,-90.5377,228227
MO,Missouri,Johnson,29101,38.7441,-93.8064,54331
MO,Missouri,Knox,29103,40.1282,-92.1481,3760
MO,Missouri,Laclede,29105,37.6583,-92.5903,36245
MO,Missouri,Lafayette,29107,39.0655,-93.7855,32974
MO,Missouri,Lawrence,29109,37.1064,-93.833,38392
MO,Missouri,Lewis,29111,40.0969,-91.7221,9945
MO,Missouri,Lincoln,29113,39.058,-90.96,61636
MO,Missouri,Linn,29115,39.8702,-93.1072,11850
MO,Missouri,Livingston,29117,39.7821,-93.5482,14330
MO,Missouri,McDonald,29119,36.6287,-94.3483,23492
MO,Missouri,Macon,29121,39.8308,-92.5646,15163
MO,Missouri,Madison,29123,37.478,-90.345,12665
MO,Missouri,Maries,29125,38.1616,-91.9249,8435
MO,Missouri,Marion,29127,39.8059,-91.6224,28493
MO,Missouri,Mercer,29129,40.4223,-93.5686,3501
MO,Missouri,Miller,29131,38.2145,-92.4284,25081
MO,Missouri,Mississippi,29133,36.8281,-89.2911,12079
MO,Missouri,Moniteau,29135,38.6328,-92.5831,15303
MO,Missouri,Monroe,29137,39.4954,-92.0007,8672
MO,Missouri,Montgomery,29139,38.9415,-91.4702,11422
MO,Missouri,Morgan,29141,38.4237,-92.886,21430
MO,Missouri,New Madrid,29143,36.5946,-89.6517,16041
MO,Missouri,Newton,29145,36.9055,-94.3393,59490
MO,Missouri,Nodaway,29147,40.3607,-94.8834,20959
MO,Missouri,Oregon,29149,36.6867,-91.4033,8704
MO,Missouri,Osage,29151,38.4604,-91.8618,13379
MO,Missouri,Ozark,29153,36.6493,-92.4447,8773
MO,Missouri,Pemiscot,29155,36.2114,-89.7854,15232
MO,Missouri,Perry,29157,37.7072,-89.8244,18947
MO,Missouri,Pettis,29159,38.7283,-93.2851,43205
MO,Missouri,Phelps,29161,37.8772,-91.7923,44948
MO,Missouri,Pike,29163,39.3438,-91.1714,17623
MO,Missouri,Platte,29165,39.3803,-94.7738,108751
MO,Missouri,Polk,29167,37.6165,-93.4005,32109
MO,Missouri,Pulaski,29169,37.8246,-92.2076,53850
MO,Missouri,Putnam,29171,40.4789,-93.0162,4675
MO,Missouri,Ralls,29173,39.5277,-91.522,10394
MO,Missouri,Randolph,29175,39.4401,-92.4971,24524
MO,Missouri,Ray,29177,39.3523,-93.9899,23149
MO,Missouri,Reynolds,29179,37.3623,-90.9691,6058
MO,Missouri,Ripley,29181,36.6528,-90.8638,10755
MO,Missouri,St. Charles,29183,38.782,-90.6749,409830
MO,Missouri,St. Clair,29185,38.0372,-93.776,9451
MO,Missouri,Ste. Genevieve,29186,37.8944,-90.1944,18551
MO,Missouri,St. Francois,29187,37.8103,-90.4723,66864
MO,Missouri,St. Louis,29189,38.6407,-90.4434,996618
MO,Missouri,Saline,29195,39.1368,-93.2018,23177
MO,Missouri,Schuyler,29197,40.4703,-92.521,4044
MO,Missouri,Scotland,29199,40.4526,-92.1471,4698
MO,Missouri,Scott,29201,37.053,-89.5686,37967
MO,Missouri,Shannon,29203,37.1574,-91.4005,7137
MO,Missouri,Shelby,29205,39.7978,-92.0766,6011
MO,Missouri,Stoddard,29207,36.8556,-89.9443,28547
MO,Missouri,Stone,29209,36.7469,-93.456,31697
MO,Missouri,Sullivan,29211,40.2106,-93.1115,5903
MO,Missouri,Taney,29213,36.6548,-93.0411,56382
MO,Missouri,Texas,29215,37.3173,-91.9651,24956
MO,Missouri,Vernon,29217,37.8506,-94.3424,19713
MO,Missouri,Warren,29219,38.7646,-91.1607,36467
MO,Missouri,Washington,29221,37.9617,-90.8774,23483
MO,Missouri,Wayne,29223,37.1126,-90.4614,10942
MO,Missouri,Webster,29225,37.2809,-92.8759,39868
MO,Missouri,Worth,29227,40.4791,-94.4221,1956
MO,Missouri,Wright,29229,37.2702,-92.4687,18722
MO,Missouri,St. Louis,29510,38.6358,-90.2451,293109
MT,Montana,Beaverhead,30001,45.1327,-112.8988,9590
MT,Montana,Big Horn,30003,45.4234,-107.4898,12963
MT,Montana,Blaine,30005,48.4327,-108.9586,6997
MT,Montana,Broadwater,30007,46.3324,-111.4955,7310
MT,Montana,Carbon,30009,45.2274,-109.0281,10877
MT,Montana,Carter,30011,45.5168,-104.5362,1361
MT,Montana,Cascade,30013,47.308,-111.347,84601
MT,Montana,Chouteau,30015,47.8806,-110.4353,5888
MT,Montana,Custer,30017,46.2527,-105.5717,11938
MT,Montana,Daniels,30019,48.7838,-105.5486,1524
MT,Montana,Dawson,30021,47.2664,-104.8995,8874
MT,Montana,Deer Lodge,30023,46.0608,-113.0678,9512
MT,Montana,Fallon,30025,46.334,-104.4174,2817
MT,Montana,Fergus,30027,47.2636,-109.2245,11581
MT,Montana,Flathead,30029,48.2951,-114.0497,108445
MT,Montana,Gallatin,30031,45.5404,-111.1704,122194
MT,Montana,Garfield,30033,47.2776,-106.9929,938
MT,Montana,Glacier,30035,48.7051,-112.9947,13713
MT,Montana,Golden Valley,30037,46.3812,-109.1752,840
MT,Montana,Granite,30039,46.4045,-113.4404,3419
MT,Montana,Hill,30041,48.6282,-110.1112,16260
MT,Montana,Jefferson,30043,46.1485,-112.0938,12501
MT,Montana,Judith Basin,30045,47.0454,-110.266,2053
MT,Montana,Lake,30047,47.6459,-114.0894,32073
MT,Montana,Lewis and Clark,30049,47.1224,-112.3904,72580
MT,Montana,Liberty,30051,48.5617,-111.0246,1968
MT,Montana,Lincoln,30053,48.5425,-115.4051,20656
MT,Montana,McCone,30055,47.6452,-105.7954,1818
MT,Montana,Madison,30057,45.3007,-111.9203,8975
MT,Montana,Meagher,30059,46.5982,-110.8857,1979
MT,Montana,Mineral,30061,47.1472,-114.9983,4796
MT,Montana,Missoula,30063,47.0365,-113.9237,119639
MT,Montana,Musselshell,30065,46.4966,-108.3981,5068
MT,Montana,Park,30067,45.4884,-110.5267,17484
MT,Montana,Petroleum,30069,47.1175,-108.2502,401
MT,Montana,Phillips,30071,48.2592,-107.9133,4224
MT,Montana,Pondera,30073,48.2278,-112.2263,6012
MT,Montana,Powder River,30075,45.395,-105.6302,1762
MT,Montana,Powell,30077,46.8564,-112.9361,7029
MT,Montana,Prairie,30079,46.8605,-105.378,1251
MT,Montana,Ravalli,30081,46.0817,-114.1207,45807
MT,Montana,Richland,30083,47.7879,-104.5614,11329
MT,Montana,Roosevelt,30085,48.2945,-105.0164,10665
MT,Montana,Rosebud,30087,46.2297,-106.7307,8236
MT,Montana,Sanders,30089,47.6748,-115.1333,12936
MT,Montana,Sheridan,30091,48.7212,-104.5047,3677
MT,Montana,Silver Bow,30093,45.9024,-112.6567,35589
MT,Montana,Stillwater,30095,45.6691,-109.3952,9052
MT,Montana,Sweet Grass,30097,45.8139,-109.941,3713
MT,Montana,Teton,30099,47.8371,-112.2409,6291
MT,Montana,Toole,30101,48.6554,-111.6956,5028
MT,Montana,Treasure,30103,46.2115,-107.2716,761
MT,Montana,Valley,30105,48.3653,-106.6675,7540
MT,Montana,Wheatland,30107,46.4663,-109.8446,2049
MT,Montana,Wibaux,30109,46.9653,-104.249,1148
MT,Montana,Yellowstone,30111,45.9373,-108.2744,167340
NE,Nebraska,Adams,31001,40.5245,-98.5012,31034
NE,Nebraska,Antelope,31003,42.1769,-98.0667,6302
NE,Nebraska,Arthur,31005,41.569,-101.6958,540
NE,Nebraska,Banner,31007,41.546,-103.7105,657
NE,Nebraska,Blaine,31009,41.9128,-99.9768,385
NE,Nebraska,Boone,31011,41.7068,-98.0672,5366
NE,Nebraska,Box Butte,31013,42.2198,-103.0857,10754
NE,Nebraska,Boyd,31015,42.8997,-98.7665,1704
NE,Nebraska,Brown,31017,42.43,-99.9295,2739
NE,Nebraska,Buffalo,31019,40.8552,-99.075,50323
NE,Nebraska,Burt,31021,41.8515,-96.3286,6730
NE,Nebraska,Butler,31023,41.2261,-97.1318,8413
NE,Nebraska,Cass,31025,40.9097,-96.1409,26963
NE,Nebraska,Cedar,31027,42.5993,-97.2524,8344
NE,Nebraska,Chase,31029,40.5242,-101.698,3639
NE,Nebraska,Cherry,31031,42.545,-101.1186,5468
NE,Nebraska,Cheyenne,31033,41.2198,-102.995,9478
NE,Nebraska,Clay,31035,40.5244,-98.0513,6084
NE,Nebraska,Colfax,31037,41.574,-97.0865,10541
NE,Nebraska,Cuming,31039,41.9164,-96.7874,8976
NE,Nebraska,Custer,31041,41.3943,-99.7261,10544
NE,Nebraska,Dakota,31043,42.3912,-96.5646,21331
NE,Nebraska,Dawes,31045,42.7197,-103.1354,8212
NE,Nebraska,Dawson,31047,40.8699,-99.8196,24020
NE,Nebraska,Deuel,31049,41.1116,-102.3339,1865
NE,Nebraska,Dixon,31051,42.4931,-96.8677,5561
NE,Nebraska,Dodge,31053,41.5779,-96.654,37146
NE,Nebraska,Douglas,31055,41.2953,-96.1543,585461
NE,Nebraska,Dundy,31057,40.1762,-101.6879,1811
NE,Nebraska,Fillmore,31059,40.5247,-97.5965,5551
NE,Nebraska,Franklin,31061,40.1763,-98.9528,2868
NE,Nebraska,Frontier,31063,40.5301,-100.3942,2562
NE,Nebraska,Furnas,31065,40.1764,-99.9123,4605
NE,Nebraska,Gage,31067,40.2619,-96.6894,21646
NE,Nebraska,Garden,31069,41.6194,-102.3354,1620
NE,Nebraska,Garfield,31071,41.9144,-98.9914,1797
NE,Nebraska,Gosper,31073,40.5148,-99.8307,1929
NE,Nebraska,Grant,31075,41.915,-101.7406,695
NE,Nebraska,Greeley,31077,41.5674,-98.5212,2211
NE,Nebraska,Hall,31079,40.8726,-98.5022,62431
NE,Nebraska,Hamilton,31081,40.873,-98.0229,9438
NE,Nebraska,Harlan,31083,40.1765,-99.4046,3006
NE,Nebraska,Hayes,31085,40.5248,-101.0619,854
NE,Nebraska,Hitchcock,31087,40.1763,-101.0423,2601
NE,Nebraska,Holt,31089,42.4557,-98.7838,10093
NE,Nebraska,Hooker,31091,41.916,-101.1353,613
NE,Nebraska,Howard,31093,41.2201,-98.5171,6492
NE,Nebraska,Jefferson,31095,40.1757,-97.1427,7155
NE,Nebraska,Johnson,31097,40.3926,-96.2651,5263
NE,Nebraska,Kearney,31099,40.5067,-98.948,6697
NE,Nebraska,Keith,31101,41.1988,-101.6615,8239
NE,Nebraska,Keya Paha,31103,42.8789,-99.7124,939
NE,Nebraska,Kimball,31105,41.1978,-103.7149,3348
NE,Nebraska,Knox,31107,42.6368,-97.8919,8362
NE,Nebraska,Lancaster,31109,40.7842,-96.6878,323673
NE,Nebraska,Lincoln,31111,41.0477,-100.7453,34122
NE,Nebraska,Logan,31113,41.5666,-100.4827,812
NE,Nebraska,Loup,31115,41.9139,-99.4544,564
NE,Nebraska,McPherson,31117,41.5682,-101.0604,463
NE,Nebraska,Madison,31119,41.9167,-97.6008,35535
NE,Nebraska,Merrick,31121,41.169,-98.038,7696
NE,Nebraska,Morrill,31123,41.716,-103.0104,4544
NE,Nebraska,Nance,31125,41.3973,-97.9922,3342
NE,Nebraska,Nemaha,31127,40.3877,-95.8498,7035
NE,Nebraska,Nuckolls,31129,40.1764,-98.0472,4089
NE,Nebraska,Otoe,31131,40.6485,-96.1348,16075
NE,Nebraska,Pawnee,31133,40.1315,-96.2371,2539
NE,Nebraska,Perkins,31135,40.851,-101.6497,2835
NE,Nebraska,Phelps,31137,40.5111,-99.4145,8983
NE,Nebraska,Pierce,31139,42.2644,-97.6013,7312
NE,Nebraska,Platte,31141,41.5713,-97.5211,34358
NE,Nebraska,Polk,31143,41.1869,-97.5684,5209
NE,Nebraska,Red Willow,31145,40.1758,-100.4769,10611
NE,Nebraska,Richardson,31147,40.125,-95.7175,7797
NE,Nebraska,Rock,31149,42.4213,-99.4499,1335
NE,Nebraska,Saline,31151,40.5241,-97.1409,14642
NE,Nebraska,Sarpy,31153,41.1129,-96.112,194051
NE,Nebraska,Saunders,31155,41.2264,-96.6374,22761
NE,Nebraska,Scotts Bluff,31157,41.8506,-103.708,35937
NE,Nebraska,Seward,31159,40.8724,-97.1395,17636
NE,Nebraska,Sheridan,31161,42.5048,-102.4089,5058
NE,Nebraska,Sherman,31163,41.2206,-98.9762,2974
NE,Nebraska,Sioux,31165,42.4877,-103.7589,1197
NE,Nebraska,Stanton,31167,41.9169,-97.1939,5835
NE,Nebraska,Thayer,31169,40.1762,-97.5949,4938
NE,Nebraska,Thomas,31171,41.9136,-100.5558,626
NE,Nebraska,Thurston,31173,42.1582,-96.544,6666
NE,Nebraska,Valley,31175,41.5673,-98.9819,4094
NE,Nebraska,Washington,31177,41.5311,-96.222,20989
NE,Nebraska,Wayne,31179,42.2093,-97.1193,9786
NE,Nebraska,Webster,31181,40.1764,-98.5,3385
NE,Nebraska,Wheeler,31183,41.9148,-98.5282,785
NE,Nebraska,York,31185,40.8727,-97.5971,14231
NV,Nevada,Churchill,32001,39.5809,-118.3358,25614
NV,Nevada,Clark,32003,36.2152,-115.0135,2293764
NV,Nevada,Douglas,32005,38.9123,-119.6162,49624
NV,Nevada,Elko,32007,41.1458,-115.3577,53852
NV,Nevada,Esmeralda,32009,37.7846,-117.6323,962
NV,Nevada,Eureka,32011,39.9839,-116.2686,1660
NV,Nevada,Humboldt,32013,41.4068,-118.112,17299
NV,Nevada,Lander,32015,39.9335,-117.0381,5745
NV,Nevada,Lincoln,32017,37.6433,-114.8775,4452
NV,Nevada,Lyon,32019,39.0206,-119.189,60630
NV,Nevada,Mineral,32021,38.5386,-118.4349,4557
NV,Nevada,Nye,32023,38.0422,-116.4718,53207
NV,Nevada,Pershing,32027,40.4404,-118.4044,6505
NV,Nevada,Storey,32029,39.447,-119.5293,4139
NV,Nevada,Washoe,32031,40.6655,-119.6643,491770
NV,Nevada,White Pine,32033,39.4422,-114.9016,8856
NV,Nevada,Carson City,32510,39.1511,-119.7476,58364
NH,New Hampshire,Belknap,33001,43.5179,-71.4227,64300
NH,New Hampshire,Carroll,33003,43.8738,-71.2031,51259
NH,New Hampshire,Cheshire,33005,42.9193,-72.2512,76945
NH,New Hampshire,Coos,33007,44.6896,-71.3056,31386
NH,New Hampshire,Grafton,33009,43.9407,-71.8208,91759
NH,New Hampshire,Hillsborough,33011,42.9153,-71.7161,424732
NH,New Hampshire,Merrimack,33013,43.2975,-71.6802,155018
NH,New Hampshire,Rockingham,33015,42.9876,-71.1254,317163
NH,New Hampshire,Strafford,33017,43.297,-71.0288,131743
NH,New Hampshire,Sullivan,33019,43.3613,-72.2221,43529
NJ,New Jersey,Atlantic,34001,39.4778,-74.6613,274704
NJ,New Jersey,Bergen,34003,40.9597,-74.0742,954717
NJ,New Jersey,Burlington,34005,39.8777,-74.6681,464226
NJ,New Jersey,Camden,34007,39.8035,-74.9597,524042
NJ,New Jersey,Cape May,34009,39.1494,-74.8005,95236
NJ,New Jersey,Cumberland,34011,39.3739,-75.1107,152915
NJ,New Jersey,Essex,34013,40.788,-74.2481,854130
NJ,New Jersey,Gloucester,34015,39.7173,-75.1414,304504
NJ,New Jersey,Hudson,34017,40.7408,-74.0751,710478
NJ,New Jersey,Hunterdon,34019,40.5673,-74.9122,129448
NJ,New Jersey,Mercer,34021,40.2834,-74.7018,383286
NJ,New Jersey,Middlesex,34023,40.4392,-74.4117,861535
NJ,New Jersey,Monmouth,34025,40.26,-74.2216,643615
NJ,New Jersey,Morris,34027,40.862,-74.5445,510375
NJ,New Jersey,Ocean,34029,39.8856,-74.2814,646434
NJ,New Jersey,Passaic,34031,41.0344,-74.3009,518289
NJ,New Jersey,Salem,34033,39.5876,-75.3491,64973
NJ,New Jersey,Somerset,34035,40.5635,-74.6164,346203
NJ,New Jersey,Sussex,34037,41.1393,-74.6909,145117
NJ,New Jersey,Union,34039,40.6601,-74.31,572549
NJ,New Jersey,Warren,34041,40.8572,-74.9973,110238
NM,New Mexico,Bernalillo,35001,35.0514,-106.6702,674357
NM,New Mexico,Catron,35003,33.9152,-108.4046,3685
NM,New Mexico,Chaves,35005,33.3633,-104.4669,64446
NM,New Mexico,Cibola,35006,34.9125,-107.9998,27059
NM,New Mexico,Colfax,35007,36.6061,-104.6468,12336
NM,New Mexico,Curry,35009,34.5742,-103.347,47932
NM,New Mexico,De Baca,35011,34.3425,-104.412,1580
NM,New Mexico,Doa Ana,35013,32.3526,-106.8328,221665
NM,New Mexico,Eddy,35015,32.4714,-104.3044,61114
NM,New Mexico,Grant,35017,32.7389,-108.3824,27856
NM,New Mexico,Guadalupe,35019,34.8633,-104.7907,4379
NM,New Mexico,Harding,35021,35.8579,-103.8203,748
NM,New Mexico,Hidalgo,35023,31.914,-108.7148,4097
NM,New Mexico,Lea,35025,32.7921,-103.4125,73154
NM,New Mexico,Lincoln,35027,33.7453,-105.4593,20227
NM,New Mexico,Los Alamos,35028,35.8693,-106.3073,19374
NM,New Mexico,Luna,35029,32.1823,-107.7499,25420
NM,New Mexico,McKinley,35031,35.5807,-108.2618,71172
NM,New Mexico,Mora,35033,36.0105,-104.945,4176
NM,New Mexico,Otero,35035,32.6132,-105.7414,68235
NM,New Mexico,Quay,35037,35.1043,-103.5498,8616
NM,New Mexico,Rio Arriba,35039,36.5096,-106.6931,40165
NM,New Mexico,Roosevelt,35041,34.0212,-103.48,19002
NM,New Mexico,Sandoval,35043,35.6886,-106.8659,151538
NM,New Mexico,San Juan,35045,36.5085,-108.3206,121178
NM,New Mexico,San Miguel,35047,35.4805,-104.8158,27036
NM,New Mexico,Santa Fe,35049,35.5069,-105.9763,155175
NM,New Mexico,Sierra,35051,33.1305,-107.1924,11511
NM,New Mexico,Socorro,35053,34.0072,-106.9302,16308
NM,New Mexico,Taos,35055,36.5783,-105.631,34516
NM,New Mexico,Torrance,35057,34.6405,-105.8508,15290
NM,New Mexico,Union,35059,36.4816,-103.471,4039
NM,New Mexico,Valencia,35061,34.7155,-106.809,77382
NY,New York,Albany,36001,42.6002,-73.9736,315374
NY,New York,Allegany,36003,42.2574,-78.0276,47027
NY,New York,Bronx,36005,40.8501,-73.8672,1419250
NY,New York,Broome,36007,42.1602,-75.8196,197738
NY,New York,Cattaraugus,36009,42.2486,-78.6788,76479
NY,New York,Cayuga,36011,42.9175,-76.5545,75464
NY,New York,Chautauqua,36013,42.2281,-79.3663,126329
NY,New York,Chemung,36015,42.1413,-76.76,82805
NY,New York,Chenango,36017,42.4935,-75.6116,46685
NY,New York,Clinton,36019,44.7462,-73.6782,78961
NY,New York,Columbia,36021,42.2501,-73.6318,61245
NY,New York,Cortland,36023,42.595,-76.0703,46401
NY,New York,Delaware,36025,42.1981,-74.9665,44551
NY,New York,Dutchess,36027,41.7652,-73.7429,297144
NY,New York,Erie,36029,42.7639,-78.7323,950044
NY,New York,Essex,36031,44.1172,-73.7726,37077
NY,New York,Franklin,36033,44.5929,-74.3038,47066
NY,New York,Fulton,36035,43.1138,-74.4222,52787
NY,New York,Genesee,36037,43.0009,-78.1937,57943
NY,New York,Greene,36039,42.2765,-74.1227,47554
NY,New York,Hamilton,36041,43.6611,-74.4974,5102
NY,New York,Herkimer,36043,43.4193,-74.9624,59932
NY,New York,Jefferson,36045,44.0496,-75.9203,116130
NY,New York,Kings,36047,40.6413,-73.9383,2646306
NY,New York,Lewis,36049,43.7851,-75.4486,26618
NY,New York,Livingston,36051,42.728,-77.7755,61588
NY,New York,Madison,36053,42.9128,-75.6696,67572
NY,New York,Monroe,36055,43.1464,-77.6961,754068
NY,New York,Montgomery,36057,42.9023,-74.4397,49461
NY,New York,Nassau,36059,40.7326,-73.5862,1388138
NY,New York,New York,36061,40.7792,-73.9668,1627788
NY,New York,Niagara,36063,43.2001,-78.7452,211341
NY,New York,Oneida,36065,43.2418,-75.4358,229645
NY,New York,Onondaga,36067,43.0058,-76.1946,471611
NY,New York,Ontario,36069,42.8528,-77.2998,112405
NY,New York,Orange,36071,41.4022,-74.3056,403840
NY,New York,Orleans,36073,43.2521,-78.2312,39686
NY,New York,Oswego,36075,43.4269,-76.1413,117945
NY,New York,Otsego,36077,42.6338,-75.0326,59738
NY,New York,Putnam,36079,41.4267,-73.7495,97988
NY,New York,Queens,36081,40.7035,-73.8196,2330124
NY,New York,Rensselaer,36083,42.7111,-73.5097,160341
NY,New York,Richmond,36085,40.5808,-74.1531,492734
NY,New York,Rockland,36087,41.1525,-74.0242,338936
NY,New York,St. Lawrence,36089,44.4964,-75.0691,107796
NY,New York,Saratoga,36091,43.1074,-73.8639,237075
NY,New York,Schenectady,36093,42.8181,-74.0586,159603
NY,New York,Schoharie,36095,42.5882,-74.4421,29979
NY,New York,Schuyler,36097,42.3938,-76.8752,17749
NY,New York,Seneca,36099,42.7811,-76.8238,33125
NY,New York,Steuben,36101,42.2678,-77.3838,93034
NY,New York,Suffolk,36103,40.8681,-72.8456,1525680
NY,New York,Sullivan,36105,41.7164,-74.7681,79147
NY,New York,Tioga,36107,42.1703,-76.3063,48106
NY,New York,Tompkins,36109,42.452,-76.4736,102879
NY,New York,Ulster,36111,41.8881,-74.2586,182109
NY,New York,Warren,36113,43.561,-73.846,65560
NY,New York,Washington,36115,43.3137,-73.4308,60883
NY,New York,Wayne,36117,43.1566,-77.0294,91128
NY,New York,Westchester,36119,41.1626,-73.7561,996888
NY,New York,Wyoming,36121,42.7024,-78.2244,39980
NY,New York,Yates,36123,42.6335,-77.1055,24637
NC,North Carolina,Alamance,37001,36.0437,-79.3995,174286
NC,North Carolina,Alexander,37003,35.921,-81.177,36440
NC,North Carolina,Alleghany,37005,36.4916,-81.127,11075
NC,North Carolina,Anson,37007,34.9738,-80.1027,21903
NC,North Carolina,Ashe,37009,36.4341,-81.5004,26831
NC,North Carolina,Avery,37011,36.0765,-81.9226,17643
NC,North Carolina,Beaufort,37013,35.494,-76.8598,44597
NC,North Carolina,Bertie,37015,36.0663,-76.9788,17482
NC,North Carolina,Bladen,37017,34.6146,-78.5637,29591
NC,North Carolina,Brunswick,37019,34.0715,-78.2383,145889
NC,North Carolina,Buncombe,37021,35.6112,-82.5301,271790
NC,North Carolina,Burke,37023,35.7496,-81.7048,87863
NC,North Carolina,Cabarrus,37025,35.3868,-80.5519,231262
NC,North Carolina,Caldwell,37027,35.953,-81.5464,80618
NC,North Carolina,Camden,37029,36.3891,-76.208,10743
NC,North Carolina,Carteret,37031,34.8357,-76.6589,68652
NC,North Carolina,Caswell,37033,36.3932,-79.3335,22689
NC,North Carolina,Catawba,37035,35.662,-81.2151,162051
NC,North Carolina,Chatham,37037,35.7026,-79.2554,78319
NC,North Carolina,Cherokee,37039,35.1339,-84.0635,29197
NC,North Carolina,Chowan,37041,36.1508,-76.6079,13814
NC,North Carolina,Clay,37043,35.0572,-83.7502,11391
NC,North Carolina,Cleveland,37045,35.3341,-81.5555,100170
NC,North Carolina,Columbus,37047,34.2657,-78.655,50453
NC,North Carolina,Craven,37049,35.1249,-77.0939,101074
NC,North Carolina,Cumberland,37051,35.0487,-78.8277,336749
NC,North Carolina,Currituck,37053,36.405,-76.0079,29612
NC,North Carolina,Dare,37055,35.7824,-75.7988,37534
NC,North Carolina,Davidson,37057,35.7933,-80.2128,171063
NC,North Carolina,Davie,37059,35.9291,-80.5445,43526
NC,North Carolina,Duplin,37061,34.9365,-77.933,49053
NC,North Carolina,Durham,37063,36.036,-78.8766,329405
NC,North Carolina,Edgecombe,37065,35.9129,-77.5971,48777
NC,North Carolina,Forsyth,37067,36.1306,-80.2563,386740
NC,North Carolina,Franklin,37069,36.0828,-78.2857,71962
NC,North Carolina,Gaston,37071,35.2944,-81.1803,231485
NC,North Carolina,Gates,37073,36.4449,-76.7005,10437
NC,North Carolina,Graham,37075,35.3502,-83.8335,8041
NC,North Carolina,Granville,37077,36.304,-78.6527,61439
NC,North Carolina,Greene,37079,35.485,-77.6758,20421
NC,North Carolina,Guilford,37081,36.0795,-79.7889,542987
NC,North Carolina,Halifax,37083,36.2574,-77.6517,48219
NC,North Carolina,Harnett,37085,35.3689,-78.8693,136503
NC,North Carolina,Haywood,37087,35.556,-82.9822,62432
NC,North Carolina,Henderson,37089,35.3363,-82.48,117387
NC,North Carolina,Hertford,37091,36.3591,-76.982,20492
NC,North Carolina,Hoke,37093,35.0175,-79.2373,53102
NC,North Carolina,Hyde,37095,35.5306,-76.2517,4625
NC,North Carolina,Iredell,37097,35.8071,-80.8734,191800
NC,North Carolina,Jackson,37099,35.2876,-83.1408,43089
NC,North Carolina,Johnston,37101,35.5178,-78.3657,226623
NC,North Carolina,Jones,37103,35.0217,-77.3552,9245
NC,North Carolina,Lee,37105,35.4752,-79.1715,64565
NC,North Carolina,Lenoir,37107,35.2388,-77.6413,54917
NC,North Carolina,Lincoln,37109,35.4856,-81.2235,90359
NC,North Carolina,McDowell,37111,35.6817,-82.0493,44679
NC,North Carolina,Macon,37113,35.1505,-83.4222,37533
NC,North Carolina,Madison,37115,35.858,-82.7058,21640
NC,North Carolina,Martin,37117,35.8432,-77.1092,21773
NC,North Carolina,Mecklenburg,37119,35.2467,-80.8328,1130906
NC,North Carolina,Mitchell,37121,36.0133,-82.1636,14973
NC,North Carolina,Montgomery,37123,35.3325,-79.9055,25874
NC,North Carolina,Moore,37125,35.3106,-79.4814,102840
NC,North Carolina,Nash,37127,35.9673,-77.9864,95451
NC,North Carolina,New Hanover,37129,34.2329,-77.8848,231214
NC,North Carolina,Northampton,37131,36.4178,-77.3969,17212
NC,North Carolina,Onslow,37133,34.7322,-77.4322,208537
NC,North Carolina,Orange,37135,36.0611,-79.1207,147292
NC,North Carolina,Pamlico,37137,35.1434,-76.7407,12315
NC,North Carolina,Pasquotank,37139,36.2955,-76.2843,40830
NC,North Carolina,Pender,37141,34.5249,-77.9052,63475
NC,North Carolina,Perquimans,37143,36.2059,-76.4411,13146
NC,North Carolina,Person,37145,36.39,-78.9718,39275
NC,North Carolina,Pitt,37147,35.5933,-77.3745,172279
NC,North Carolina,Polk,37149,35.2793,-82.1697,19689
NC,North Carolina,Randolph,37151,35.7103,-79.806,145322
NC,North Carolina,Richmond,37153,35.0059,-79.7479,42818
NC,North Carolina,Robeson,37155,34.6402,-79.1039,116858
NC,North Carolina,Rockingham,37157,36.396,-79.775,91585
NC,North Carolina,Rowan,37159,35.6394,-80.5247,148487
NC,North Carolina,Rutherford,37161,35.4026,-81.9198,64850
NC,North Carolina,Sampson,37163,34.9916,-78.3714,59245
NC,North Carolina,Scotland,37165,34.8409,-79.4804,34353
NC,North Carolina,Stanly,37167,35.3119,-80.251,63557
NC,North Carolina,Stokes,37169,36.4019,-80.2397,44889
NC,North Carolina,Surry,37171,36.4146,-80.688,71407
NC,North Carolina,Swain,37173,35.4868,-83.4928,14065
NC,North Carolina,Transylvania,37175,35.2021,-82.7982,33243
NC,North Carolina,Tyrrell,37177,35.8172,-76.209,3376
NC,North Carolina,Union,37179,34.9884,-80.5307,244975
NC,North Carolina,Vance,37181,36.3649,-78.4079,42361
NC,North Carolina,Wake,37183,35.7903,-78.6503,1151009
NC,North Carolina,Warren,37185,36.3965,-78.1067,18751
NC,North Carolina,Washington,37187,35.8225,-76.5775,10905
NC,North Carolina,Watauga,37189,36.2311,-81.6964,54607
NC,North Carolina,Wayne,37191,35.364,-78.004,117606
NC,North Carolina,Wilkes,37193,36.2062,-81.163,65983
NC,North Carolina,Wilson,37195,35.7051,-77.9187,78648
NC,North Carolina,Yadkin,37197,36.1605,-80.6652,37419
NC,North Carolina,Yancey,37199,35.8989,-82.3076,18676
ND,North Dakota,Adams,38001,46.0968,-102.5284,2179
ND,North Dakota,Barnes,38003,46.9361,-98.0716,10794
ND,North Dakota,Benson,38005,48.0694,-99.366,5861
ND,North Dakota,Billings,38007,47.0236,-103.3763,948
ND,North Dakota,Bottineau,38009,48.7922,-100.8333,6390
ND,North Dakota,Bowman,38011,46.1126,-103.5206,2935
ND,North Dakota,Burke,38013,48.791,-102.5182,2163
ND,North Dakota,Burleigh,38015,46.9775,-100.4687,98986
ND,North Dakota,Cass,38017,46.933,-97.248,189286
ND,North Dakota,Cavalier,38019,48.7723,-98.4648,3663
ND,North Dakota,Dickey,38021,46.1102,-98.5047,4959
ND,North Dakota,Divide,38023,48.8149,-103.4872,2174
ND,North Dakota,Dunn,38025,47.3568,-102.6182,4043
ND,North Dakota,Eddy,38027,47.7176,-98.9016,2319
ND,North Dakota,Emmons,38029,46.2851,-100.2387,3269
ND,North Dakota,Foster,38031,47.4571,-98.883,3372
ND,North Dakota,Golden Valley,38033,46.9402,-103.8466,1679
ND,North Dakota,Grand Forks,38035,47.9219,-97.4569,72764
ND,North Dakota,Grant,38037,46.3583,-101.6397,2276
ND,North Dakota,Griggs,38039,47.4573,-98.237,2340
ND,North Dakota,Hettinger,38041,46.4325,-102.4603,2453
ND,North Dakota,Kidder,38043,46.9801,-99.7801,2374
ND,North Dakota,LaMoure,38045,46.4569,-98.5355,4107
ND,North Dakota,Logan,38047,46.4573,-99.4774,1848
ND,North Dakota,McHenry,38049,48.2346,-100.6363,5264
ND,North Dakota,McIntosh,38051,46.1118,-99.4412,2512
ND,North Dakota,McKenzie,38053,47.7402,-103.3953,14280
ND,North Dakota,McLean,38055,47.6069,-101.3218,9807
ND,North Dakota,Mercer,38057,47.3092,-101.8315,8341
ND,North Dakota,Morton,38059,46.7161,-101.2811,33479
ND,North Dakota,Mountrail,38061,48.2013,-102.3557,9567
ND,North Dakota,Nelson,38063,47.9217,-98.192,3015
ND,North Dakota,Oliver,38065,47.1153,-101.3403,1821
ND,North Dakota,Pembina,38067,48.7675,-97.5518,6787
ND,North Dakota,Pierce,38069,48.2496,-99.9718,3961
ND,North Dakota,Ramsey,38071,48.2689,-98.7201,11563
ND,North Dakota,Ransom,38073,46.4562,-97.6574,5662
ND,North Dakota,Renville,38075,48.719,-101.6578,2277
ND,North Dakota,Richland,38077,46.2646,-96.9483,16550
ND,North Dakota,Rolette,38079,48.7725,-99.8409,12065
ND,North Dakota,Sargent,38081,46.1078,-97.6306,3822
ND,North Dakota,Sheridan,38083,47.5755,-100.3456,1327
ND,North Dakota,Sioux,38085,46.1127,-101.0404,3789
ND,North Dakota,Slope,38087,46.4472,-103.4599,795
ND,North Dakota,Stark,38089,46.8107,-102.6551,33116
ND,North Dakota,Steele,38091,47.4562,-97.7246,1731
ND,North Dakota,Stutsman,38093,46.9793,-98.9588,21525
ND,North Dakota,Towner,38095,48.6855,-99.2457,2113
ND,North Dakota,Traill,38097,47.4542,-97.1616,7980
ND,North Dakota,Walsh,38099,48.3695,-97.7213,10488
